,ordernumber,orderdate,channel,order_quantity,unit_price,revenue,total_unit_cost,profit_per_unit,customer_names,product_name,county,state_code,state,region_type,latitude,longitude,population,region,2017_budgets
0,SO - 0002544,2017-01-01,Wholesale,6,1239.5,7437.0,1028.7849999999999,210.71500000000015,NCS Group,Product 30,Hudson County,NJ,New Jersey,City,40.77955,-74.02375,69156,Northeast,1011609.684
1,SO - 0006431,2017-01-01,Wholesale,5,1829.1000000000001,9145.5,1207.2060000000001,621.894,Epic Group,Product 13,Mesa County,CO,Colorado,City,39.06387,-108.55065,60358,West,3720639.645
2,SO - 0007491,2017-01-01,Wholesale,9,2412.0,21708.0,1664.28,747.72,State Ltd,Product 15,Los Angeles County,CA,California,City,33.96168,-118.35313,111666,West,3299478.315
3,SO - 0008741,2017-01-01,Wholesale,8,904.5,7236.0,750.735,153.765,Fivebridge Ltd,Product 8,Dubuque County,IA,Iowa,City,42.50056,-90.66457,58799,Midwest,1085037.3290000001
4,SO - 0009295,2017-01-01,Wholesale,12,1112.2,13346.400000000001,811.9060000000001,300.294,Tagfeed Ltd,Product 2,Hernando County,FL,Florida,CDP,28.47689,-82.52546,100270,South,3050087.565
5,SO - 0009270,2017-01-01,Wholesale,11,3865.9,42524.9,2087.5860000000002,1778.3139999999999,Rhynoodle Ltd,Product 2,Erie County,PA,Pennsylvania,City,42.12922,-80.08506,99475,Northeast,3050087.565
6,SO - 0008849,2017-01-01,Wholesale,9,187.6,1688.3999999999999,116.312,71.288,Twinte Group,Product 23,Monterey County,CA,California,City,36.67774,-121.6555,157380,West,1135815.7580000001
7,SO - 0010564,2017-01-01,Distributor,8,944.7,7557.6,651.843,292.8570000000001,Accord Group,Product 3,Johnson County/Tarrant County/Ellis County,TX,Texas,City,32.56919,-97.12053,64274,South,2642352.432
8,SO - 0008694,2017-01-01,Distributor,5,1085.4,5427.0,672.9480000000001,412.452,Blogspan Ltd,Product 2,Rutherford County,TN,Tennessee,City,35.84562,-86.39027,126118,South,3050087.565
9,SO - 0009097,2017-01-01,Distributor,10,174.20000000000002,1742.0000000000002,130.65,43.55000000000001,CLINIQUE Ltd,Product 9,New Haven County,CT,Connecticut,City,41.53815,-72.80704,59988,Northeast,710415.405
10,SO - 0001333,2017-01-01,Wholesale,6,1139.0,6834.0,489.77,649.23,Wordpedia Ltd,Product 11,San Mateo County,CA,California,City,37.48522,-122.23635,85288,West,1230458.484
11,SO - 0002930,2017-01-01,Distributor,6,2512.5,15075.0,1582.875,929.625,Linklinks Ltd,Product 18,Palm Beach County,FL,Florida,City,26.82339,-80.13865,52923,South,2309499.045
12,SO - 0003538,2017-01-01,Wholesale,11,1051.9,11570.900000000001,831.0010000000001,220.899,Aimbo Corp,Product 4,St. Charles County,MO,Missouri,City,38.78394,-90.48123,68796,Midwest,2885560.824
13,SO - 0004653,2017-01-01,Wholesale,9,1232.8,11095.199999999999,788.992,443.808,Pixoboo Corp,Product 1,Benton County,WA,Washington,City,46.28569,-119.28446,54248,West,3016489.209
14,SO - 0004702,2017-01-01,Distributor,11,2519.2000000000003,27711.200000000004,1309.9840000000002,1209.2160000000001,Kaymbo Company,Product 26,Alameda County,CA,California,City,37.87159,-122.27275,120972,West,5685138.2700000005
15,SO - 0005293,2017-01-01,Wholesale,10,1125.6000000000001,11256.000000000002,540.288,585.3120000000001,Liberty Group,Product 3,Cleveland County,OK,Oklahoma,City,35.22257,-97.43948,120284,South,2642352.432
16,SO - 0005571,2017-01-01,Wholesale,9,1112.2,10009.800000000001,556.1,556.1,Chatterbri Ltd,Product 26,Kern County,CA,California,City,35.37329,-119.01871,373640,West,5685138.2700000005
17,SO - 0007215,2017-01-01,Export,6,1105.5,6633.0,840.1800000000001,265.31999999999994,SHISEIDO Ltd,Product 18,Vanderburgh County,IN,Indiana,City,37.97476,-87.55585,119943,Midwest,2309499.045
18,SO - 0009517,2017-01-01,Wholesale,12,2659.9,31918.800000000003,2207.717,452.183,Blogspan Ltd,Product 5,Olmsted County,MN,Minnesota,City,44.02163,-92.4699,112225,Midwest,3925424.5420000004
19,SO - 0009687,2017-01-01,Distributor,9,998.3000000000001,8984.7,469.201,529.099,Skajo Ltd,Product 17,Waukesha County,WI,Wisconsin,City,43.01168,-88.23148,71970,Midwest,2119616.824
20,SO - 0001822,2017-01-01,Distributor,8,1031.8,8254.4,866.7119999999999,165.08800000000008,Livepath Corp,Product 18,Rockwall County/Dallas County,TX,Texas,City,32.91592,-96.54867,60236,South,2309499.045
21,SO - 0003716,2017-01-01,Wholesale,5,5728.5,28642.5,3437.1,2291.4,Realbuzz Ltd,Product 14,Cuyahoga County,OH,Ohio,City,41.40477,-81.72291,79937,Midwest,4028698.4090000005
22,SO - 0004300,2017-01-01,Wholesale,9,2251.2000000000003,20260.800000000003,1868.496,382.7040000000002,MEIJER Corp,Product 28,Orange County,CA,California,City,33.74557,-117.86783,335400,West,1003867.767
23,SO - 0006401,2017-01-01,Export,12,1078.7,12944.400000000001,776.664,302.03600000000006,Aldi Ltd,Product 27,Stanislaus County,CA,California,City,37.6391,-120.99688,211266,West,964940.2310000001
24,SO - 0006761,2017-01-01,Distributor,10,2613.0,26130.0,1829.1,783.9000000000001,Twimbo Company,Product 4,Peach County/Houston County,GA,Georgia,City,32.5971,-83.65394,73490,South,2885560.824
25,SO - 0007043,2017-01-01,Distributor,10,1132.3,11323.0,826.579,305.721,Army Group,Product 25,Orange County,CA,California,City,33.60002,-117.672,97156,West,5342315.484
26,SO - 0007191,2017-01-01,Distributor,9,1078.7,9708.300000000001,722.729,355.971,Eayo Company,Product 5,Clarke County,GA,Georgia,Unified Government,33.95219,-83.36715,123912,South,3925424.5420000004
27,SO - 0010754,2017-01-01,Distributor,9,1963.1000000000001,17667.9,1629.373,333.7270000000001,Pacific Ltd,Product 6,Hillsborough County,FL,Florida,City,27.94752,-82.45843,369075,South,1672229.416
28,SO - 000378,2017-01-01,Wholesale,11,924.6,10170.6,536.268,388.332,Jayo Company,Product 13,Stark County,OH,Ohio,Township,40.8686,-81.36892,52710,Midwest,3720639.645
29,SO - 0002059,2017-01-01,Wholesale,9,1018.4,9165.6,407.36,611.04,Feednation Corp,Product 3,Dallas County,TX,Texas,City,32.58986,-96.85695,52486,South,2642352.432
30,SO - 0009193,2017-01-01,Distributor,5,891.1,4455.5,730.702,160.39800000000002,NARS Group,Product 3,Manatee County,FL,Florida,City,27.49893,-82.57482,54437,South,2642352.432
31,SO - 0002350,2017-01-01,Distributor,12,884.4,10612.8,486.42,397.97999999999996,Johnson Ltd,Product 13,New Haven County,CT,Connecticut,Town,41.5585,-73.03668,108802,Northeast,3720639.645
32,SO - 0004688,2017-01-01,Wholesale,8,1038.5,8308.0,633.485,405.015,Flipstorm Group,Product 25,Riverside County,CA,California,City,33.72835,-117.14642,87174,West,5342315.484
33,SO - 0005205,2017-01-01,Wholesale,11,2378.5,26163.5,1403.3149999999998,975.1850000000002,CARDINAL Group,Product 8,Wagoner County/Tulsa County,OK,Oklahoma,City,36.03653,-95.781,106563,South,1085037.3290000001
34,SO - 0007853,2017-01-01,Distributor,8,1018.4,8147.2,448.096,570.304,Twimbo Company,Product 16,Pulaski County,AR,Arkansas,City,34.74648,-92.28959,197992,South,2062061.144
35,SO - 0007956,2017-01-01,Distributor,9,877.7,7899.3,737.268,140.43200000000002,Aldi Ltd,Product 25,Pennington County,SD,South Dakota,City,44.08054,-103.23101,73569,Midwest,5342315.484
36,SO - 0009514,2017-01-01,Wholesale,11,904.5,9949.5,587.9250000000001,316.57499999999993,Camido Company,Product 19,Muscogee County,GA,Georgia,City,32.46098,-84.98771,200579,South,1645841.6
37,SO - 0008126,2017-01-01,Wholesale,8,3276.3,26210.4,2588.277,688.0230000000001,Mylan Corp,Product 4,DuPage County,IL,Illinois,Township,41.86177,-87.9761,125730,Midwest,2885560.824
38,SO - 0008167,2017-01-01,Distributor,5,3892.7000000000003,19463.5,3075.233,817.4670000000001,Dynazzy Company,Product 14,Los Angeles County,CA,California,City,33.93029,-118.21146,71989,West,4028698.4090000005
39,SO - 000298,2017-01-02,Distributor,8,3899.4,31195.2,2027.688,1871.712,Neutrogena Ltd,Product 19,Sangamon County,IL,Illinois,Township,39.79106,-89.64457,116358,Midwest,1645841.6
40,SO - 0002724,2017-01-02,Wholesale,5,234.5,1172.5,117.25,117.25,Epic Group,Product 2,Miami-Dade County,FL,Florida,City,25.79065,-80.13005,92312,South,3050087.565
41,SO - 0002908,2017-01-02,Export,10,1072.0,10720.0,428.8,643.2,Remedy Ltd,Product 6,Natrona County,WY,Wyoming,City,42.86663,-106.31308,60285,West,1672229.416
42,SO - 0004368,2017-01-02,Distributor,8,3839.1,30712.8,1996.332,1842.7679999999998,Bluezoom Group,Product 25,Oakland County,MI,Michigan,Charter Township,42.56923,-83.38727,65885,Midwest,5342315.484
43,SO - 0005705,2017-01-02,Wholesale,10,1963.1000000000001,19631.0,863.764,1099.3360000000002,Centizu Company,Product 11,Outagamie County/Calumet County/Winnebago County,WI,Wisconsin,City,44.27795,-88.38826,74139,Midwest,1230458.484
44,SO - 0007404,2017-01-02,Wholesale,9,5936.2,53425.799999999996,3561.72,2374.48,Oba Company,Product 26,Chatham County/Wake County,NC,North Carolina,Town,35.78088,-78.81327,159769,South,5685138.2700000005
45,SO - 0008748,2017-01-02,Export,7,2338.3,16368.100000000002,1028.852,1309.448,Colgate-Pa Group,Product 7,Richmond city,VA,Virginia,City,37.55376,-77.46026,220289,South,889737.555
46,SO - 0002435,2017-01-02,Wholesale,8,1031.8,8254.4,443.674,588.126,Bath Group,Product 5,Sacramento County,CA,California,CDP,38.61713,-121.32828,63314,West,3925424.5420000004
47,SO - 0004041,2017-01-02,Wholesale,5,2592.9,12964.5,1218.663,1374.237,Deseret Group,Product 4,Prince William County,VA,Virginia,CDP,38.63706,-77.31109,70381,South,2885560.824
48,SO - 0004738,2017-01-02,Wholesale,7,837.5,5862.5,644.875,192.625,Cogidoo Company,Product 20,Los Angeles County,CA,California,City,34.57943,-118.11646,158351,West,2067108.1199999999
49,SO - 0005552,2017-01-02,Export,7,3189.2000000000003,22324.4,2647.036,542.1640000000002,Vimbo Company,Product 21,Macomb County,MI,Michigan,City,42.49982,-83.00549,135358,Midwest,959899.2180000001
50,SO - 0008746,2017-01-02,Distributor,10,2244.5,22445.0,920.2449999999999,1324.255,Cantrell Company,Product 16,Spokane County,WA,Washington,City,47.65878,-117.42605,213272,West,2062061.144
51,SO - 0009209,2017-01-02,Wholesale,12,207.70000000000002,2492.4,85.157,122.54300000000002,Twimbo Company,Product 25,Queens County,NY,New York,Borough,40.75,-73.86667,2339150,Northeast,5342315.484
52,SO - 0009420,2017-01-02,Wholesale,5,5286.3,26431.5,3013.191,2273.1090000000004,CLINIQUE Ltd,Product 12,Monterey County,CA,California,City,36.67774,-121.6555,157380,West,1356976.996
53,SO - 000962,2017-01-02,Wholesale,9,837.5,7537.5,644.875,192.625,Neutrogena Ltd,Product 4,Palm Beach County,FL,Florida,City,26.71534,-80.05337,106779,South,2885560.824
54,SO - 0001665,2017-01-02,Export,6,824.1,4944.6,659.2800000000001,164.81999999999994,Golden Corp,Product 16,Marion County,IN,Indiana,Township,39.87632,-86.14291,137215,Midwest,2062061.144
55,SO - 0001933,2017-01-02,Distributor,6,254.6,1527.6,216.41,38.19,Cogilith Group,Product 13,Orange County,CA,California,City,33.66946,-117.82311,256927,West,3720639.645
56,SO - 0003799,2017-01-02,Distributor,6,1045.2,6271.200000000001,616.668,428.53200000000004,Ascend Ltd,Product 15,Marion County,IN,Indiana,Township,39.77186,-86.26094,142010,Midwest,3299478.315
57,SO - 0004235,2017-01-02,Wholesale,9,4006.6,36059.4,1802.97,2203.63,SAFEWAY Ltd,Product 8,Cook County,IL,Illinois,City,42.04114,-87.69006,75527,Midwest,1085037.3290000001
58,SO - 0005690,2017-01-02,Wholesale,5,804.0,4020.0,683.4,120.60000000000002,Zoonoodle Ltd,Product 13,Orange County,FL,Florida,CDP,28.5641,-81.2114,85561,South,3720639.645
59,SO - 0009993,2017-01-02,Wholesale,11,3872.6,42598.6,1665.2179999999998,2207.382,Skyvu Group,Product 1,Los Angeles County,CA,California,CDP,33.96085,-118.04173,58328,West,3016489.209
60,SO - 0001424,2017-01-02,Distributor,7,1688.4,11818.800000000001,844.2,844.2,Nlounge Ltd,Product 19,Muscogee County,GA,Georgia,City,32.46098,-84.98771,200579,South,1645841.6
61,SO - 0003399,2017-01-02,Distributor,9,1072.0,9648.0,814.72,257.28,Linklinks Ltd,Product 4,Bucks County,PA,Pennsylvania,Township,40.10622,-74.94364,60374,Northeast,2885560.824
62,SO - 0005388,2017-01-02,Export,5,167.5,837.5,105.525,61.974999999999994,CARDINAL Group,Product 18,Wyandotte County,KS,Kansas,City,39.11417,-94.62746,151306,Midwest,2309499.045
63,SO - 0006164,2017-01-02,Distributor,10,3979.8,39798.0,3303.234,676.5660000000003,SAFEWAY Ltd,Product 12,Hillsborough County,FL,Florida,CDP,28.01057,-82.57732,82506,South,1356976.996
64,SO - 0007186,2017-01-02,Distributor,6,2251.2000000000003,13507.2,1508.3040000000003,742.896,Chatterbri Ltd,Product 14,Hampden County,MA,Massachusetts,City,42.1487,-72.60787,56741,Northeast,4028698.4090000005
65,SO - 0007332,2017-01-02,Wholesale,6,5889.3,35335.8,4711.4400000000005,1177.8599999999997,Blogspan Ltd,Product 3,Wayne County,MI,Michigan,City,42.33698,-83.27326,56145,Midwest,2642352.432
66,SO - 0007607,2017-01-02,Distributor,11,2860.9,31469.9,1316.0140000000001,1544.886,Snaptags Ltd,Product 5,Hamilton County,IN,Indiana,City,40.04559,-86.0086,59093,Midwest,3925424.5420000004
67,SO - 0008254,2017-01-02,Wholesale,8,1031.8,8254.4,815.122,216.678,Jabbercube Corp,Product 16,Bucks County,PA,Pennsylvania,Township,40.10622,-74.94364,60374,Northeast,2062061.144
68,SO - 0001891,2017-01-02,Distributor,12,3926.2000000000003,47114.4,2669.8160000000003,1256.384,Skyvu Group,Product 14,Orange County,CA,California,City,33.52253,-117.70755,65806,West,4028698.4090000005
69,SO - 0002187,2017-01-02,Distributor,11,3979.8,43777.8,1989.9,1989.9,MEIJER Corp,Product 18,Sacramento County,CA,California,City,38.58157,-121.4944,490712,West,2309499.045
70,SO - 0002601,2017-01-02,Wholesale,12,6137.2,73646.4,3375.46,2761.74,Voonyx Group,Product 20,Orange County,CA,California,City,33.87224,-117.87034,52495,West,2067108.1199999999
71,SO - 0005600,2017-01-02,Wholesale,7,971.5,6800.5,505.18,466.32,Cadila Ltd,Product 25,Harrison County/Gregg County,TX,Texas,City,32.51934,-94.76459,82287,South,5342315.484
72,SO - 0005771,2017-01-02,Wholesale,7,1092.1000000000001,7644.700000000001,589.7340000000002,502.366,Pacific Ltd,Product 2,Orange County,CA,California,City,33.83529,-117.9145,350742,West,3050087.565
73,SO - 0006743,2017-01-02,Wholesale,5,6231.0,31155.0,4174.77,2056.2299999999996,Aromaticos Company,Product 2,Santa Barbara County,CA,California,City,34.42083,-119.69819,91842,West,3050087.565
74,SO - 0009768,2017-01-02,Wholesale,5,2653.2000000000003,13266.000000000002,1698.0480000000002,955.152,Eidel Corp,Product 3,King County/Pierce County,WA,Washington,City,47.30377,-122.21,77006,West,2642352.432
75,SO - 0008653,2017-01-02,Export,5,1078.7,5393.5,841.3860000000001,237.31399999999996,Mylan Corp,Product 13,Santa Barbara County,CA,California,City,34.95303,-120.43572,105093,West,3720639.645
76,SO - 000491,2017-01-02,Wholesale,11,2452.2000000000003,26974.200000000004,1912.7160000000003,539.4839999999999,Mydo Corp,Product 15,Lee County,FL,Florida,City,26.33981,-81.7787,51704,South,3299478.315
77,SO - 0002388,2017-01-02,Wholesale,8,2686.7000000000003,21493.600000000002,1423.9510000000002,1262.749,ALK-Abello Ltd,Product 6,Leon County,FL,Florida,City,30.43826,-84.28073,189907,South,1672229.416
78,SO - 0002621,2017-01-02,Distributor,6,978.2,5869.200000000001,665.176,313.024,Golden Corp,Product 6,Alameda County,CA,California,City,37.54827,-121.98857,232206,West,1672229.416
79,SO - 0002866,2017-01-02,Wholesale,6,3939.6,23637.6,2600.136,1339.464,Kaymbo Company,Product 1,Fairfield County,CT,Connecticut,City,41.39482,-73.45401,84657,Northeast,3016489.209
80,SO - 0003103,2017-01-02,Distributor,11,1695.1000000000001,18646.100000000002,966.207,728.8930000000001,Pfizer Corp,Product 25,Maricopa County,AZ,Arizona,City,33.37032,-112.58378,62138,West,5342315.484
81,SO - 0005390,2017-01-02,Distributor,10,676.7,6767.0,514.292,162.40800000000002,Colgate-Pa Group,Product 8,Gaston County,NC,North Carolina,City,35.26208,-81.1873,74543,South,1085037.3290000001
82,SO - 0006381,2017-01-02,Wholesale,7,3102.1,21714.7,1271.8609999999999,1830.239,Cogidoo Company,Product 4,Garfield County,OK,Oklahoma,City,36.39559,-97.87839,51776,South,2885560.824
83,SO - 0007355,2017-01-02,Wholesale,11,3671.6,40387.6,2459.972,1211.6279999999997,Thoughtmix Ltd,Product 26,Fulton County/Cobb County,GA,Georgia,City,34.03945,-84.35095,94501,South,5685138.2700000005
84,SO - 0008619,2017-01-02,Wholesale,7,201.0,1407.0,118.58999999999999,82.41000000000001,Natures Group,Product 2,San Diego County,CA,California,City,32.71533,-117.15726,1394928,West,3050087.565
85,SO - 0009103,2017-01-02,Wholesale,12,1721.9,20662.800000000003,843.731,878.1690000000001,Eidel Corp,Product 13,Caldwell County/Hays County/Guadalupe County,TX,Texas,City,29.8729,-97.93773,60684,South,3720639.645
86,SO - 0009761,2017-01-02,Wholesale,5,1232.8,6164.0,875.2879999999999,357.51200000000006,Avamba Company,Product 20,Kern County,CA,California,City,35.76884,-119.24705,52733,West,2067108.1199999999
87,SO - 0009952,2017-01-02,Distributor,8,261.3,2090.4,154.167,107.13300000000001,Skyvu Group,Product 25,Cumberland County,NC,North Carolina,City,35.05266,-78.87836,201963,South,5342315.484
88,SO - 0002901,2017-01-03,Wholesale,9,261.3,2351.7000000000003,198.58800000000002,62.71199999999999,Twinte Group,Product 25,Santa Clara County,CA,California,City,37.36883,-122.03635,151754,West,5342315.484
89,SO - 0003602,2017-01-03,Wholesale,9,6023.3,54209.700000000004,4758.407,1264.893,Mydo Corp,Product 6,DeKalb County,GA,Georgia,City,33.85844,-84.3402,51910,South,1672229.416
90,SO - 0004487,2017-01-03,Wholesale,9,1045.2,9406.800000000001,522.6,522.6,Fatz Group,Product 7,Marion County,IN,Indiana,Township,39.8716,-86.01156,123397,Midwest,889737.555
91,SO - 000189,2017-01-03,Export,9,3953.0,35577.0,3360.0499999999997,592.9500000000003,Viva Ltd,Product 12,Cook County/Kane County,IL,Illinois,Village,42.06521,-88.153,52138,Midwest,1356976.996
92,SO - 0001627,2017-01-03,Distributor,10,3959.7000000000003,39597.0,3009.3720000000003,950.328,The Ltd,Product 16,Sacramento County,CA,California,CDP,38.61713,-121.32828,63314,West,2062061.144
93,SO - 0003272,2017-01-03,Distributor,6,6438.7,38632.2,2575.48,3863.22,Zava Group,Product 11,Hennepin County,MN,Minnesota,City,44.9133,-93.50329,51669,Midwest,1230458.484
94,SO - 0006032,2017-01-03,Distributor,5,777.2,3886.0,349.74,427.46000000000004,Zava Group,Product 15,DuPage County,IL,Illinois,Township,41.77193,-88.09209,119818,Midwest,3299478.315
95,SO - 0008909,2017-01-03,Wholesale,5,1956.4,9782.0,1584.6840000000002,371.7159999999999,US Ltd,Product 20,Guilford County,NC,North Carolina,City,36.07264,-79.79198,285342,South,2067108.1199999999
96,SO - 0010169,2017-01-03,Wholesale,11,2666.6,29332.6,1786.622,879.9779999999998,SUPERVALU Ltd,Product 1,Monroe County,IN,Indiana,Township,39.11904,-86.51979,53382,Midwest,3016489.209
97,SO - 0003164,2017-01-03,Wholesale,9,884.4,7959.599999999999,353.76,530.64,Deseret Group,Product 20,Mobile County,AL,Alabama,City,30.69436,-88.04305,194288,South,2067108.1199999999
98,SO - 0003406,2017-01-03,Wholesale,7,6137.2,42960.4,4296.04,1841.1599999999999,Zava Group,Product 6,Broward County,FL,Florida,City,26.10037,-80.39977,69959,South,1672229.416
99,SO - 0005059,2017-01-03,Wholesale,8,6090.3,48722.4,2618.829,3471.471,Natures Group,Product 1,King County,WA,Washington,City,47.47038,-122.34679,50467,West,3016489.209
100,SO - 0008419,2017-01-03,Wholesale,9,1038.5,9346.5,498.47999999999996,540.02,Skyvu Group,Product 17,Dakota County,MN,Minnesota,City,44.64969,-93.24272,60633,Midwest,2119616.824
101,SO - 0008391,2017-01-03,Wholesale,7,3906.1,27342.7,3046.758,859.3420000000001,Zoonoodle Ltd,Product 5,Lackawanna County,PA,Pennsylvania,City,41.40897,-75.66241,77118,Northeast,3925424.5420000004
102,SO - 0001163,2017-01-03,Distributor,8,917.9,7343.2,431.41299999999995,486.487,Wordpedia Ltd,Product 19,Middlesex County,MA,Massachusetts,City,42.41843,-71.10616,57403,Northeast,1645841.6
103,SO - 0006750,2017-01-03,Wholesale,12,1775.5,21306.0,1083.055,692.4449999999999,NARS Group,Product 20,Middlesex County,MA,Massachusetts,City,42.3751,-71.10561,110402,Northeast,2067108.1199999999
104,SO - 0007819,2017-01-03,Wholesale,10,1112.2,11122.0,912.004,200.19600000000003,US Ltd,Product 15,Hampden County,MA,Massachusetts,City,42.10148,-72.58981,154341,Northeast,3299478.315
105,SO - 0009969,2017-01-03,Export,9,3973.1,35757.9,2661.9770000000003,1311.1229999999996,Tekfly Group,Product 30,Adams County,CO,Colorado,City,39.80832,-104.93387,53696,West,1011609.684
106,SO - 000148,2017-01-03,Wholesale,10,6452.1,64521.0,5161.68,1290.42,Realbuzz Ltd,Product 13,Dane County,WI,Wisconsin,City,43.07305,-89.40123,248951,Midwest,3720639.645
107,SO - 000696,2017-01-03,Distributor,11,3906.1,42967.1,1835.867,2070.233,Remedy Ltd,Product 26,Wayne County,MI,Michigan,City,42.36837,-83.35271,94635,Midwest,5685138.2700000005
108,SO - 0001559,2017-01-03,Wholesale,7,1989.9,13929.300000000001,835.758,1154.142,Jabbercube Corp,Product 21,Bristol County,MA,Massachusetts,City,41.63622,-70.93421,94958,Northeast,959899.2180000001
109,SO - 0003181,2017-01-03,Wholesale,7,2251.2000000000003,15758.400000000001,1710.9120000000003,540.288,Skidoo Company,Product 3,Los Angeles County,CA,California,City,34.13973,-118.03534,58408,West,2642352.432
110,SO - 0004628,2017-01-03,Wholesale,10,1192.6000000000001,11926.000000000002,918.3020000000001,274.298,Kazu Corp,Product 4,McLean County,IL,Illinois,Township,40.53839,-88.98528,54383,Midwest,2885560.824
111,SO - 0005219,2017-01-03,Distributor,11,3999.9,43998.9,3119.922,879.9780000000001,Oba Company,Product 25,Randall County/Potter County,TX,Texas,City,35.19988,-101.8302,198645,South,5342315.484
112,SO - 0006313,2017-01-03,Export,8,1822.4,14579.2,1530.816,291.58400000000006,Sanum-Kehl Group,Product 16,San Joaquin County,CA,California,City,37.9577,-121.29078,305658,West,2062061.144
113,SO - 0007008,2017-01-03,Distributor,7,234.5,1641.5,93.80000000000001,140.7,Fred's Company,Product 19,Los Angeles County,CA,California,City,34.08529,-117.9609,77071,West,1645841.6
114,SO - 000692,2017-01-03,Export,9,3731.9,33587.1,2276.459,1455.4410000000003,ALK-Abello Ltd,Product 6,Rockwall County/Kaufman County/Collin County/Denton County/Dallas County,TX,Texas,City,32.79333,-96.76651,1300092,South,1672229.416
115,SO - 000929,2017-01-03,Export,9,261.3,2351.7000000000003,198.58800000000002,62.71199999999999,General Company,Product 15,Winnebago County,IL,Illinois,Township,42.24868,-89.07452,173110,Midwest,3299478.315
116,SO - 0002644,2017-01-03,Distributor,9,3852.5,34672.5,2504.125,1348.375,Twitterbri Ltd,Product 19,King County/Pierce County,WA,Washington,City,47.30377,-122.21,77006,West,1645841.6
117,SO - 0003210,2017-01-03,Wholesale,12,1085.4,13024.800000000001,640.386,445.0140000000001,Yodoo Ltd,Product 17,Champaign County,IL,Illinois,City,40.11642,-88.24338,86096,Midwest,2119616.824
118,SO - 0003737,2017-01-03,Distributor,6,2311.5,13869.0,1733.625,577.875,NARS Group,Product 25,San Diego County,CA,California,City,32.67806,-117.09917,61060,West,5342315.484
119,SO - 0005480,2017-01-03,Wholesale,5,2686.7000000000003,13433.500000000002,2122.4930000000004,564.2069999999999,Blogspan Ltd,Product 14,Salt Lake County,UT,Utah,City,40.69161,-112.00105,136208,West,4028698.4090000005
120,SO - 0006125,2017-01-03,Wholesale,11,1815.7,19972.7,726.2800000000001,1089.42,Zooveo Company,Product 29,Fairfax County,VA,Virginia,CDP,38.84039,-77.42888,73677,South,594471.5700000001
121,SO - 0006192,2017-01-03,Export,7,2458.9,17212.3,1032.738,1426.162,Skyvu Group,Product 20,DeKalb County,GA,Georgia,City,33.85844,-84.3402,51910,South,2067108.1199999999
122,SO - 0006469,2017-01-03,Distributor,5,2237.8,11189.0,939.8760000000001,1297.924,Army Group,Product 23,Greene County/Montgomery County,OH,Ohio,City,39.69599,-84.15044,55525,Midwest,1135815.7580000001
123,SO - 0004529,2017-01-04,Distributor,11,4006.6,44072.6,2844.6859999999997,1161.9140000000002,Valeant Corp,Product 29,Hall County,NE,Nebraska,City,40.92501,-98.34201,51440,Midwest,594471.5700000001
124,SO - 0005789,2017-01-04,Wholesale,7,1902.8,13319.6,1427.1,475.70000000000005,Skajo Ltd,Product 1,Hidalgo County,TX,Texas,City,26.1948,-98.18362,76538,South,3016489.209
125,SO - 0006334,2017-01-04,Wholesale,12,1125.6000000000001,13507.2,472.75200000000007,652.8480000000001,Tekfly Group,Product 5,Santa Clara County,CA,California,City,37.36883,-122.03635,151754,West,3925424.5420000004
126,SO - 0008860,2017-01-04,Distributor,10,5768.7,57687.0,4268.838,1499.862,Accord Group,Product 4,Hillsborough County,FL,Florida,CDP,27.9378,-82.28592,106604,South,2885560.824
127,SO - 0003871,2017-01-04,Wholesale,7,790.6,5534.2,434.83000000000004,355.77,Janyx Group,Product 13,Peach County/Houston County,GA,Georgia,City,32.5971,-83.65394,73490,South,3720639.645
128,SO - 0004981,2017-01-04,Wholesale,9,1065.3,9587.699999999999,521.997,543.303,Devpoint Group,Product 20,Orleans Parish,LA,Louisiana,City,29.95465,-90.07507,389617,South,2067108.1199999999
129,SO - 0007239,2017-01-04,Wholesale,10,3906.1,39061.0,2695.209,1210.891,Dynazzy Company,Product 25,Kane County,IL,Illinois,Township,41.94151,-88.321,51812,Midwest,5342315.484
130,SO - 0008957,2017-01-04,Wholesale,12,958.1,11497.2,440.72600000000006,517.374,Trunyx Ltd,Product 11,Miami-Dade County,FL,Florida,CDP,25.75871,-80.39839,57123,South,1230458.484
131,SO - 0004451,2017-01-04,Wholesale,12,6559.3,78711.6,5444.219,1115.0810000000001,Zoomdog Corp,Product 2,Caldwell County/Hays County/Guadalupe County,TX,Texas,City,29.8729,-97.93773,60684,South,3050087.565
132,SO - 0004698,2017-01-04,Wholesale,8,3953.0,31624.0,1818.38,2134.62,Pfizer Corp,Product 5,Utah County,UT,Utah,City,40.2969,-111.69465,94457,West,3925424.5420000004
133,SO - 0005566,2017-01-04,Distributor,8,174.20000000000002,1393.6000000000001,142.844,31.356000000000023,Aromaticos Company,Product 18,Fulton County/Cobb County,GA,Georgia,City,34.03945,-84.35095,94501,South,2309499.045
134,SO - 0005773,2017-01-04,Wholesale,12,3939.6,47275.2,2481.948,1457.652,Flipbug Ltd,Product 15,Oakland County,MI,Michigan,City,42.65837,-83.14993,73424,Midwest,3299478.315
135,SO - 0005782,2017-01-04,Export,6,1132.3,6793.799999999999,611.442,520.858,Tambee Company,Product 9,Marion County,IN,Indiana,Township,39.8716,-86.01156,123397,Midwest,710415.405
136,SO - 0006390,2017-01-04,Distributor,11,5159.0,56749.0,2321.55,2837.45,Thoughtmix Ltd,Product 23,Cook County/Kane County,IL,Illinois,City,42.03964,-88.32171,112111,Midwest,1135815.7580000001
137,SO - 0009014,2017-01-04,Wholesale,12,2365.1,28381.199999999997,1348.1069999999997,1016.9930000000002,Skajo Ltd,Product 14,Orleans Parish,LA,Louisiana,City,29.95465,-90.07507,389617,South,4028698.4090000005
138,SO - 000992,2017-01-04,Export,7,3912.8,27389.600000000002,2778.088,1134.712,Golden Corp,Product 13,Allen County,IN,Indiana,City,41.1306,-85.12886,260326,Midwest,3720639.645
139,SO - 0004284,2017-01-04,Distributor,10,241.20000000000002,2412.0,173.66400000000002,67.536,Realbridge Corp,Product 29,Randall County/Potter County,TX,Texas,City,35.19988,-101.8302,198645,South,594471.5700000001
140,SO - 0005424,2017-01-04,Wholesale,7,917.9,6425.3,504.845,413.05499999999995,Avavee Group,Product 22,Marion County,IN,Indiana,Township,39.67674,-86.15616,113236,Midwest,663601.902
141,SO - 0009958,2017-01-04,Wholesale,8,2358.4,18867.2,1108.448,1249.952,Cadila Ltd,Product 26,Whatcom County,WA,Washington,City,48.75955,-122.48822,85146,West,5685138.2700000005
142,SO - 0009362,2017-01-04,Wholesale,8,5406.900000000001,43255.200000000004,4217.3820000000005,1189.518,Gigabox Group,Product 30,Plymouth County/Woodbury County,IA,Iowa,City,42.49567,-96.39053,82821,Midwest,1011609.684
143,SO - 000576,2017-01-04,Wholesale,6,5051.8,30310.800000000003,3435.224,1616.576,Zooveo Company,Product 15,Harrisonburg city,VA,Virginia,City,38.44957,-78.86892,52538,South,3299478.315
144,SO - 0001134,2017-01-04,Distributor,5,3061.9,15309.5,2449.52,612.3800000000001,Skajo Ltd,Product 4,Santa Cruz County,CA,California,City,36.91023,-121.75689,53628,West,2885560.824
145,SO - 0002390,2017-01-04,Wholesale,8,1159.1000000000001,9272.800000000001,857.734,301.3660000000001,SAFEWAY Ltd,Product 26,Placer County,CA,California,City,38.75212,-121.28801,130269,West,5685138.2700000005
146,SO - 0004233,2017-01-04,Wholesale,11,3926.2000000000003,43188.200000000004,2630.5540000000005,1295.6459999999997,Skippad Ltd,Product 19,Yakima County,WA,Washington,City,46.60207,-120.5059,93701,West,1645841.6
147,SO - 0005328,2017-01-04,Wholesale,12,1072.0,12864.0,868.32,203.67999999999995,Mydeo Ltd,Product 25,Monmouth County,NJ,New Jersey,Township,40.18205,-74.19852,52104,Northeast,5342315.484
148,SO - 0006550,2017-01-04,Wholesale,5,2365.1,11825.5,1702.8719999999998,662.2280000000001,Pixoboo Corp,Product 15,Essex County,MA,Massachusetts,City,42.46676,-70.94949,92457,Northeast,3299478.315
149,SO - 0007051,2017-01-04,Wholesale,10,1132.3,11323.0,566.15,566.15,BTA Corp,Product 2,Passaic County,NJ,New Jersey,City,40.85677,-74.12848,71085,Northeast,3050087.565
150,SO - 0009885,2017-01-04,Distributor,6,1246.2,7477.200000000001,710.334,535.8660000000001,Arbor Company,Product 2,Brown County,WI,Wisconsin,City,44.51916,-88.01983,105207,Midwest,3050087.565
151,SO - 0010221,2017-01-04,Distributor,11,2432.1,26753.1,1605.186,826.914,Voolia Ltd,Product 16,Los Angeles County,CA,California,City,33.96168,-118.35313,111666,West,2062061.144
152,SO - 000628,2017-01-04,Distributor,9,241.20000000000002,2170.8,180.9,60.30000000000001,Mydo Corp,Product 5,Lee County,FL,Florida,City,26.56285,-81.94953,175229,South,3925424.5420000004
153,SO - 0003064,2017-01-04,Distributor,6,1876.0,11256.0,1106.84,769.1600000000001,NARS Group,Product 1,Lehigh County,PA,Pennsylvania,City,40.60843,-75.49018,120207,Northeast,3016489.209
154,SO - 0003600,2017-01-04,Wholesale,5,207.70000000000002,1038.5,145.39000000000001,62.31,SAFEWAY Ltd,Product 5,Utah County,UT,Utah,City,40.2969,-111.69465,94457,West,3925424.5420000004
155,SO - 0004193,2017-01-04,Export,6,2941.3,17647.800000000003,1676.541,1264.7590000000002,Alembic Ltd,Product 1,Dakota County,MN,Minnesota,City,44.73191,-93.21772,51221,Midwest,3016489.209
156,SO - 0004880,2017-01-04,Distributor,7,2318.2000000000003,16227.400000000001,1460.4660000000001,857.7340000000002,Browsebug Company,Product 16,King County,WA,Washington,City,47.61038,-122.20068,139820,West,2062061.144
157,SO - 0007400,2017-01-04,Wholesale,6,3899.4,23396.4,2612.5980000000004,1286.8019999999997,Vimbo Company,Product 25,Cook County,IL,Illinois,Township,41.59859,-87.85041,99816,Midwest,5342315.484
158,SO - 0008082,2017-01-04,Distributor,11,1835.8,20193.8,1303.418,532.3820000000001,Golden Corp,Product 25,Johnson County,IA,Iowa,City,41.66113,-91.53017,74220,Midwest,5342315.484
159,SO - 0001013,2017-01-05,Wholesale,6,1065.3,6391.799999999999,852.24,213.05999999999995,Kare Corp,Product 26,Hennepin County,MN,Minnesota,City,44.85469,-93.47079,63496,Midwest,5685138.2700000005
160,SO - 0002835,2017-01-05,Distributor,7,897.8000000000001,6284.6,430.944,466.85600000000005,Topiczoom Corp,Product 1,Sacramento County,CA,California,City,38.58157,-121.4944,490712,West,3016489.209
161,SO - 0003354,2017-01-05,Distributor,12,5467.2,65606.4,3772.3679999999995,1694.8320000000003,Kazu Corp,Product 18,Fulton County,GA,Georgia,City,34.07538,-84.29409,63693,South,2309499.045
162,SO - 0004537,2017-01-05,Wholesale,9,1902.8,17125.2,818.204,1084.596,Fivebridge Ltd,Product 2,New Haven County,CT,Connecticut,Town,41.310810000000004,-72.92495,130322,Northeast,3050087.565
163,SO - 0006070,2017-01-05,Distributor,9,3852.5,34672.5,1541.0,2311.5,Aibox Company,Product 13,Dougherty County,GA,Georgia,City,31.57851,-84.15574,74843,South,3720639.645
164,SO - 0006259,2017-01-05,Distributor,5,1058.6000000000001,5293.000000000001,709.2620000000002,349.33799999999997,Flipbug Ltd,Product 29,Orange County,CA,California,City,33.64113,-117.91867,113204,West,594471.5700000001
165,SO - 0006384,2017-01-05,Distributor,7,1266.3,8864.1,810.432,455.86799999999994,Aromaticos Company,Product 20,Onslow County,NC,North Carolina,City,34.75405,-77.43024,67357,South,2067108.1199999999
166,SO - 0009343,2017-01-05,Export,6,3457.2000000000003,20743.2,2938.6200000000003,518.5799999999999,GOOD Ltd,Product 22,Montgomery County,MD,Maryland,City,39.084,-77.15276,66980,South,663601.902
167,SO - 0008132,2017-01-05,Distributor,12,911.2,10934.400000000001,537.608,373.5920000000001,Dazzlesphe Corp,Product 6,Collin County/Dallas County,TX,Texas,City,32.97229,-96.70807,110815,South,1672229.416
168,SO - 0009933,2017-01-05,Wholesale,11,3497.4,38471.4,2937.816,559.5840000000003,Kazu Corp,Product 10,Merced County,CA,California,City,37.30216,-120.48297,82436,West,864331.624
169,SO - 0010352,2017-01-05,Wholesale,6,1855.9,11135.400000000001,1429.0430000000001,426.85699999999997,Kazu Corp,Product 3,Vigo County,IN,Indiana,City,39.4667,-87.41391,60825,Midwest,2642352.432
170,SO - 0008261,2017-01-05,Wholesale,5,227.8,1139.0,148.07000000000002,79.72999999999999,Talane Group,Product 15,Douglas County,CO,Colorado,Town,39.37221,-104.85609,55591,West,3299478.315
171,SO - 0002063,2017-01-05,Distributor,7,1125.6000000000001,7879.200000000001,855.4560000000001,270.144,SUPERVALU Ltd,Product 2,St. Charles County,MO,Missouri,City,38.81061,-90.69985,85040,Midwest,3050087.565
172,SO - 0003523,2017-01-05,Export,5,871.0,4355.0,531.31,339.69000000000005,Realcube Company,Product 2,San Bernardino County,CA,California,City,34.05557,-117.18254,71035,West,3050087.565
173,SO - 0009505,2017-01-05,Wholesale,8,2385.2000000000003,19081.600000000002,1025.6360000000002,1359.564,Zoomzone Corp,Product 7,Mobile County,AL,Alabama,City,30.69436,-88.04305,194288,South,889737.555
174,SO - 0001757,2017-01-05,Export,9,1098.8,9889.199999999999,747.184,351.616,Twitterbri Ltd,Product 17,San Diego County,CA,California,City,32.83838,-116.97392,57787,West,2119616.824
175,SO - 0004837,2017-01-05,Wholesale,5,1072.0,5360.0,568.1600000000001,503.8399999999999,Ascend Ltd,Product 5,Guilford County,NC,North Carolina,City,36.07264,-79.79198,285342,South,3925424.5420000004
176,SO - 0007857,2017-01-05,Export,7,2257.9,15805.300000000001,1106.371,1151.529,Zoonoodle Ltd,Product 2,Oakland County,MI,Michigan,City,42.63892,-83.29105,59917,Midwest,3050087.565
177,SO - 0010065,2017-01-05,Wholesale,10,1078.7,10787.0,474.62800000000004,604.072,Pfizer Corp,Product 14,McLean County,IL,Illinois,Township,40.53839,-88.98528,54383,Midwest,4028698.4090000005
178,SO - 0009211,2017-01-05,Distributor,11,5038.400000000001,55422.40000000001,3778.8,1259.6000000000004,Buzzshare Company,Product 25,Harris County,TX,Texas,City,29.69106,-95.2091,153784,South,5342315.484
179,SO - 0003315,2017-01-05,Distributor,7,2740.3,19182.100000000002,1561.971,1178.3290000000002,Rhynoodle Ltd,Product 19,Erie County,NY,New York,Town,43.01164,-78.75715,125109,Northeast,1645841.6
180,SO - 0008683,2017-01-05,Export,5,167.5,837.5,85.425,82.075,Accudial Company,Product 30,Eau Claire County/Chippewa County,WI,Wisconsin,City,44.81966,-91.49488,67778,Midwest,1011609.684
181,SO - 0009449,2017-01-05,Export,5,3973.1,19865.5,2066.012,1907.0879999999997,Skidoo Company,Product 30,Suffolk County,NY,New York,Town,40.64092,-73.31669,213776,Northeast,1011609.684
182,SO - 0010471,2017-01-05,Export,5,1882.7,9413.5,1016.6580000000001,866.0419999999999,Organon Corp,Product 20,Harris County,TX,Texas,City,29.69106,-95.2091,153784,South,2067108.1199999999
183,SO - 0010375,2017-01-05,Distributor,6,2010.0,12060.0,964.8,1045.2,Jayo Company,Product 25,Miami-Dade County,FL,Florida,City,25.77427,-80.19366,441003,South,5342315.484
184,SO - 0009020,2017-01-05,Wholesale,5,221.1,1105.5,145.92600000000002,75.17399999999998,Avavee Group,Product 1,Monroe County,NY,New York,CDP,43.2134,-77.57972,51594,Northeast,3016489.209
185,SO - 0009070,2017-01-05,Wholesale,12,1051.9,12622.800000000001,599.583,452.3170000000001,Liberty Group,Product 26,Sacramento County,CA,California,City,38.58907,-121.30273,71017,West,5685138.2700000005
186,SO - 000643,2017-01-05,Distributor,7,1005.0,7035.0,462.3,542.7,Flipbug Ltd,Product 5,Passaic County,NJ,New Jersey,Township,40.94585,-74.24508,55210,Northeast,3925424.5420000004
187,SO - 0001536,2017-01-05,Wholesale,8,6472.2,51777.6,2977.212,3494.988,Eayo Company,Product 18,Lubbock County,TX,Texas,City,33.57786,-101.85517,249042,South,2309499.045
188,SO - 0002360,2017-01-05,Wholesale,7,1118.9,7832.300000000001,906.3090000000001,212.591,Mylan Corp,Product 25,Weld County,CO,Colorado,City,40.42331,-104.70913,100883,West,5342315.484
189,SO - 0002452,2017-01-05,Wholesale,5,1132.3,5661.5,871.871,260.429,Natures Group,Product 13,New Haven County,CT,Connecticut,Town,41.310810000000004,-72.92495,130322,Northeast,3720639.645
190,SO - 0003254,2017-01-05,Wholesale,7,777.2,5440.400000000001,528.4960000000001,248.70399999999995,Aldi Ltd,Product 13,Outagamie County/Calumet County/Winnebago County,WI,Wisconsin,City,44.27795,-88.38826,74139,Midwest,3720639.645
191,SO - 0004421,2017-01-05,Distributor,7,227.8,1594.6000000000001,113.9,113.9,Avavee Group,Product 25,Calhoun County,MI,Michigan,City,42.32115,-85.17971,51589,Midwest,5342315.484
192,SO - 000355,2017-01-05,Distributor,11,1092.1000000000001,12013.100000000002,622.4970000000001,469.60300000000007,Snaptags Ltd,Product 18,Salt Lake County,UT,Utah,City,40.60967,-111.9391,111946,West,2309499.045
193,SO - 0004277,2017-01-05,Wholesale,11,6405.2,70457.2,2882.34,3522.8599999999997,Oba Company,Product 14,Los Angeles County,CA,California,City,34.13612,-117.86534,52009,West,4028698.4090000005
194,SO - 0004887,2017-01-05,Distributor,6,2539.3,15235.800000000001,1015.7200000000001,1523.58,Alembic Ltd,Product 13,Cameron County,TX,Texas,City,26.19063,-97.6961,65774,South,3720639.645
195,SO - 0005347,2017-01-05,Wholesale,8,3852.5,30820.0,3236.1,616.4000000000001,Wordpedia Ltd,Product 20,Rockwall County/Dallas County,TX,Texas,City,32.91592,-96.54867,60236,South,2067108.1199999999
196,SO - 0010537,2017-01-05,Distributor,7,991.6,6941.2,485.884,505.716,Colgate-Pa Group,Product 15,Butte County,CA,California,City,39.72849,-121.83748,90316,West,3299478.315
197,SO - 0010456,2017-01-05,Wholesale,5,4020.0,20100.0,3095.4,924.5999999999999,Snaptags Ltd,Product 1,Rankin County/Hinds County/Madison County,MS,Mississippi,City,32.31583,-90.21282,170674,South,3016489.209
198,SO - 000577,2017-01-06,Export,5,1011.7,5058.5,667.7220000000001,343.97799999999995,Skyvu Group,Product 17,Monroe County,NY,New York,City,43.15478,-77.61556,209802,Northeast,2119616.824
199,SO - 0003740,2017-01-06,Export,8,3859.2000000000003,30873.600000000002,2006.784,1852.4160000000002,Jayo Company,Product 16,Lynchburg city,VA,Virginia,City,37.41375,-79.14225,79812,South,2062061.144
200,SO - 0005137,2017-01-06,Wholesale,5,1058.6000000000001,5293.000000000001,698.6760000000002,359.924,Rochester Group,Product 14,Arapahoe County,CO,Colorado,City,39.57916,-104.87692,109741,West,4028698.4090000005
201,SO - 0006007,2017-01-06,Wholesale,9,1118.9,10070.1,704.907,413.99300000000005,Linkbuzz Ltd,Product 17,Hampden County,MA,Massachusetts,City,42.10148,-72.58981,154341,Northeast,2119616.824
202,SO - 0007827,2017-01-06,Wholesale,10,167.5,1675.0,107.2,60.3,Nexus Group,Product 21,Milwaukee County,WI,Wisconsin,City,43.01668,-88.00703,60620,Midwest,959899.2180000001
203,SO - 0007952,2017-01-06,Distributor,6,180.9,1085.4,92.259,88.641,Brainspher Ltd,Product 25,Oakland County,MI,Michigan,City,42.48531,-83.37716,81330,Midwest,5342315.484
204,SO - 0009873,2017-01-06,Wholesale,7,2646.5,18525.5,1482.0400000000002,1164.4599999999998,Pacific Ltd,Product 12,Norfolk County,MA,Massachusetts,City,42.25288,-71.00227,93618,Northeast,1356976.996
205,SO - 0008943,2017-01-06,Distributor,9,227.8,2050.2000000000003,184.51800000000003,43.28199999999998,Nexus Group,Product 15,San Diego County,CA,California,City,33.03699,-117.29198,62930,West,3299478.315
206,SO - 0010655,2017-01-06,Distributor,7,2351.7000000000003,16461.9,1787.2920000000001,564.4080000000001,Aimbo Corp,Product 3,San Mateo County,CA,California,City,37.48522,-122.23635,85288,West,2642352.432
207,SO - 0009407,2017-01-06,Distributor,9,3356.7000000000003,30210.300000000003,1779.0510000000002,1577.6490000000001,Topiczoom Corp,Product 16,Sacramento County,CA,California,City,38.58907,-121.30273,71017,West,2062061.144
208,SO - 000781,2017-01-06,Wholesale,11,1145.7,12602.7,744.705,400.995,Podcat Corp,Product 14,Rockwall County/Collin County/Dallas County,TX,Texas,City,32.90983,-96.63033,236897,South,4028698.4090000005
209,SO - 0001723,2017-01-06,Wholesale,11,6398.5,70383.5,3647.1449999999995,2751.3550000000005,Fivechat Company,Product 1,Hartford County,CT,Connecticut,Town,41.77524,-72.52443,58007,Northeast,3016489.209
210,SO - 0005687,2017-01-06,Wholesale,7,2398.6,16790.2,1439.1599999999999,959.44,Blogtags Ltd,Product 17,DuPage County,IL,Illinois,Township,41.85857,-88.08948,118844,Midwest,2119616.824
211,SO - 0006399,2017-01-06,Wholesale,6,1333.3,7999.799999999999,1026.641,306.6589999999999,Geiss Company,Product 30,Larimer County,CO,Colorado,City,40.58526,-105.08442,161175,West,1011609.684
212,SO - 0009076,2017-01-06,Distributor,12,5822.3,69867.6,4599.617,1222.683,Blogspan Ltd,Product 17,Volusia County,FL,Florida,City,29.21081,-81.02283,64736,South,2119616.824
213,SO - 0009925,2017-01-06,Distributor,9,5380.1,48420.9,3604.6670000000004,1775.433,Flipbug Ltd,Product 25,McLean County,IL,Illinois,City,40.4842,-88.99369,78292,Midwest,5342315.484
214,SO - 000678,2017-01-06,Wholesale,11,5567.7,61244.7,4565.513999999999,1002.1860000000006,Realbuzz Ltd,Product 2,Alameda County,CA,California,City,37.72493,-122.15608,90712,West,3050087.565
215,SO - 0001563,2017-01-06,Export,8,2291.4,18331.2,1810.2060000000001,481.19399999999996,Twimbo Company,Product 18,Bernalillo County,NM,New Mexico,City,35.08449,-106.65114,559121,West,2309499.045
216,SO - 0002896,2017-01-06,Wholesale,11,2264.6,24910.6,1743.742,520.858,Neutrogena Ltd,Product 13,Rockwall County/Kaufman County/Collin County/Denton County/Dallas County,TX,Texas,City,32.79333,-96.76651,1300092,South,3720639.645
217,SO - 0001098,2017-01-06,Wholesale,11,1675.0,18425.0,1155.75,519.25,Golden Corp,Product 30,Broome County,NY,New York,Town,42.12662,-76.03324,54995,Northeast,1011609.684
218,SO - 0005409,2017-01-06,Export,6,1018.4,6110.4,723.064,295.336,Gabvine Ltd,Product 14,Collin County/Dallas County,TX,Texas,City,32.97229,-96.70807,110815,South,4028698.4090000005
219,SO - 0005791,2017-01-06,Distributor,5,3162.4,15812.0,1865.816,1296.584,Zoonder Group,Product 28,San Diego County,CA,California,City,32.71533,-117.15726,1394928,West,1003867.767
220,SO - 0006160,2017-01-06,Export,9,1092.1000000000001,9828.900000000001,688.0230000000001,404.077,Neutrogena Ltd,Product 13,Monroe County,NY,New York,City,43.15478,-77.61556,209802,Northeast,3720639.645
221,SO - 0006230,2017-01-06,Wholesale,11,2425.4,26679.4,1770.542,654.8580000000002,CLINIQUE Ltd,Product 25,Howard County,MD,Maryland,CDP,39.24038,-76.83942,102116,South,5342315.484
222,SO - 0006930,2017-01-06,Distributor,7,2592.9,18150.3,1089.018,1503.882,Podcat Corp,Product 25,Cook County,IL,Illinois,Village,42.08836,-87.98063,75926,Midwest,5342315.484
223,SO - 0009458,2017-01-06,Export,8,1809.0,14472.0,741.6899999999999,1067.31,Zava Group,Product 14,Cook County,IL,Illinois,Township,41.84454,-87.75929,83886,Midwest,4028698.4090000005
224,SO - 000194,2017-01-06,Wholesale,5,5031.7,25158.5,4025.36,1006.3399999999997,Z.H.T. Group,Product 16,Warren County/Polk County,IA,Iowa,City,41.57259,-93.61024,210330,Midwest,2062061.144
225,SO - 000777,2017-01-06,Wholesale,10,984.9,9849.0,689.43,295.47,Shuffledri Group,Product 26,Orange County,CA,California,City,33.77391,-117.94145,175393,West,5685138.2700000005
226,SO - 0002473,2017-01-06,Distributor,8,2398.6,19188.8,1918.88,479.7199999999998,Pfizer Corp,Product 2,Limestone County/Morgan County,AL,Alabama,City,34.57332,-86.99214,55437,South,3050087.565
227,SO - 0003643,2017-01-06,Wholesale,5,1051.9,5259.5,725.811,326.08900000000006,Valeant Corp,Product 26,Fairfield County,CT,Connecticut,City,41.05343,-73.53873,128874,Northeast,5685138.2700000005
228,SO - 0005432,2017-01-06,Distributor,6,5380.1,32280.600000000002,2205.841,3174.2590000000005,Rochester Group,Product 20,Salt Lake County,UT,Utah,City,40.56217,-111.92966,66648,West,2067108.1199999999
229,SO - 0008970,2017-01-06,Wholesale,12,670.0,8040.0,569.5,100.5,Jayo Company,Product 1,Yolo County,CA,California,City,38.58046,-121.53023,52721,West,3016489.209
230,SO - 000296,2017-01-06,Wholesale,11,1072.0,11792.0,900.48,171.51999999999998,Jabbercube Corp,Product 26,Cook County,IL,Illinois,Township,41.59859,-87.85041,99816,Midwest,5685138.2700000005
231,SO - 0001226,2017-01-06,Wholesale,7,2505.8,17540.600000000002,2079.814,425.98600000000033,Quimm Company,Product 18,Rockland County,NY,New York,Town,41.14077,-74.10498,135257,Northeast,2309499.045
232,SO - 0003570,2017-01-06,Wholesale,5,1072.0,5360.0,686.08,385.91999999999996,Nlounge Ltd,Product 25,Hartford County,CT,Connecticut,Town,41.77524,-72.52443,58007,Northeast,5342315.484
233,SO - 0005166,2017-01-06,Wholesale,7,1909.5,13366.5,954.75,954.75,Rooxo Company,Product 6,Los Angeles County,CA,California,City,33.88835,-118.30896,60447,West,1672229.416
234,SO - 0006422,2017-01-06,Distributor,10,2646.5,26465.0,1879.0149999999999,767.4850000000001,Nexus Group,Product 13,Howard County,MD,Maryland,CDP,39.24038,-76.83942,102116,South,3720639.645
235,SO - 0009392,2017-01-06,Distributor,11,3946.3,43409.3,1657.446,2288.8540000000003,Amerisourc Corp,Product 18,Cobb County,GA,Georgia,City,33.88399,-84.51438,56146,South,2309499.045
236,SO - 0008912,2017-01-06,Distributor,8,3986.5,31892.0,1913.52,2072.98,Bluezoom Group,Product 14,Clark County,NV,Nevada,CDP,36.09719,-115.14666,223182,West,4028698.4090000005
237,SO - 0002849,2017-01-07,Wholesale,5,2646.5,13232.5,1085.0649999999998,1561.4350000000002,WOONSOCKET Corp,Product 20,Santa Clara County,CA,California,City,37.00578,-121.56828,53231,West,2067108.1199999999
238,SO - 0005826,2017-01-07,Wholesale,10,1112.2,11122.0,745.1740000000001,367.02599999999995,Neutrogena Ltd,Product 28,Howard County,MD,Maryland,CDP,39.24038,-76.83942,102116,South,1003867.767
239,SO - 0010652,2017-01-07,Wholesale,11,254.6,2800.6,157.852,96.74799999999999,US Ltd,Product 28,Kent County,MI,Michigan,City,42.86947,-85.64475,51357,Midwest,1003867.767
240,SO - 0010098,2017-01-07,Distributor,9,1118.9,10070.1,604.2060000000001,514.694,Kaymbo Company,Product 26,Oakland County,MI,Michigan,City,42.65837,-83.14993,73424,Midwest,5685138.2700000005
241,SO - 0009603,2017-01-07,Distributor,5,2237.8,11189.0,939.8760000000001,1297.924,Army Group,Product 23,Maricopa County,AZ,Arizona,City,33.63059,-112.33322,128422,West,1135815.7580000001
242,SO - 0001440,2017-01-07,Wholesale,12,1882.7,22592.4,960.177,922.523,NCS Group,Product 20,Pinellas County,FL,Florida,City,27.8428,-82.69954,51617,South,2067108.1199999999
243,SO - 0004246,2017-01-07,Distributor,6,1943.0,11658.0,1029.79,913.21,Meejo Corp,Product 25,Hamilton County,TN,Tennessee,City,35.04563,-85.30968,176588,South,5342315.484
244,SO - 0005295,2017-01-07,Export,6,3477.3,20863.800000000003,2677.521,799.779,Skippad Ltd,Product 27,Hamilton County,IN,Indiana,City,40.04559,-86.0086,59093,Midwest,964940.2310000001
245,SO - 0009098,2017-01-07,Wholesale,8,5688.3,45506.4,2673.5009999999997,3014.7990000000004,Skyvu Group,Product 26,Oakland County,MI,Michigan,City,42.48059,-83.47549,58723,Midwest,5685138.2700000005
246,SO - 000175,2017-01-07,Wholesale,11,2224.4,24468.4,1579.324,645.076,Wordware Company,Product 6,Los Angeles County,CA,California,CDP,33.96816,-118.24467,62815,West,1672229.416
247,SO - 000237,2017-01-07,Wholesale,10,1721.9,17219.0,1084.797,637.1030000000001,Aimbo Corp,Product 13,Delaware County,IN,Indiana,Township,40.19153,-85.38601,69064,Midwest,3720639.645
248,SO - 000781,2017-01-07,Wholesale,11,1145.7,12602.7,744.705,400.995,Podcat Corp,Product 14,Santa Cruz County,CA,California,City,36.97412,-122.0308,64220,West,4028698.4090000005
249,SO - 000821,2017-01-07,Distributor,9,247.9,2231.1,151.219,96.68100000000001,Gigabox Group,Product 1,San Mateo County,CA,California,City,37.70583,-122.46194,106562,West,3016489.209
250,SO - 0001679,2017-01-07,Export,11,1829.1000000000001,20120.100000000002,859.677,969.4230000000001,SUPERVALU Ltd,Product 19,Broward County,FL,Florida,City,26.24453,-80.20644,57234,South,1645841.6
251,SO - 0001852,2017-01-07,Distributor,6,1902.8,11416.8,1255.848,646.952,Accudial Company,Product 4,Orange County,CA,California,City,33.931960000000004,-117.94617,62131,West,2885560.824
252,SO - 0002855,2017-01-07,Export,11,5165.7,56822.7,2996.1059999999998,2169.594,Deseret Group,Product 26,Montgomery County,MD,Maryland,CDP,38.99067,-77.02609,75748,South,5685138.2700000005
253,SO - 0004033,2017-01-07,Wholesale,9,1105.5,9949.5,652.245,453.255,NARS Group,Product 11,Fairfield County,CT,Connecticut,City,41.05343,-73.53873,128874,Northeast,1230458.484
254,SO - 0004520,2017-01-07,Distributor,7,3892.7000000000003,27248.9,3230.9410000000003,661.759,Oba Company,Product 1,Brazos County,TX,Texas,City,30.67436,-96.36996,82118,South,3016489.209
255,SO - 0007118,2017-01-07,Wholesale,7,1159.1000000000001,8113.700000000001,660.687,498.4130000000001,General Company,Product 28,Hartford County,CT,Connecticut,Town,41.68158,-72.94075,60452,Northeast,1003867.767
256,SO - 0009698,2017-01-07,Wholesale,7,2626.4,18384.8,1339.4640000000002,1286.936,Snaptags Ltd,Product 20,Limestone County/Madison County,AL,Alabama,City,34.69901,-86.67298,190582,South,2067108.1199999999
257,SO - 0010603,2017-01-07,Export,11,2425.4,26679.4,1600.7640000000001,824.636,Mita Corp,Product 2,Monroe County,NY,New York,Town,43.20981,-77.57206,50985,Northeast,3050087.565
258,SO - 0008636,2017-01-07,Wholesale,5,911.2,4556.0,455.6,455.6,Blogtags Ltd,Product 1,Ada County,ID,Idaho,City,43.61211,-116.39151,90739,West,3016489.209
259,SO - 0008427,2017-01-07,Wholesale,10,1125.6000000000001,11256.000000000002,540.288,585.3120000000001,Liberty Group,Product 3,San Diego County,CA,California,City,32.64,-117.08417,265757,West,2642352.432
260,SO - 0010587,2017-01-07,Export,12,730.3000000000001,8763.6,452.78600000000006,277.514,Mydeo Ltd,Product 13,Suffolk County,NY,New York,CDP,40.78121,-73.24623,59436,Northeast,3720639.645
261,SO - 0008371,2017-01-07,Wholesale,7,261.3,1829.1000000000001,107.133,154.16700000000003,Brightdog Corp,Product 3,Orange County,FL,Florida,CDP,28.5641,-81.2114,85561,South,2642352.432
262,SO - 000382,2017-01-07,Distributor,6,3959.7000000000003,23758.2,2573.8050000000003,1385.895,Mydo Corp,Product 15,Bell County,TX,Texas,City,31.11712,-97.7278,140806,South,3299478.315
263,SO - 0002398,2017-01-07,Wholesale,12,1996.6000000000001,23959.2,1637.212,359.38800000000015,Zooveo Company,Product 30,Marion County,IN,Indiana,Township,39.87571,-86.26625,81408,Midwest,1011609.684
264,SO - 0003694,2017-01-07,Export,8,1098.8,8790.4,791.136,307.664,Arbor Company,Product 25,Kings County,NY,New York,Borough,40.62472,-73.95222,2636735,Northeast,5342315.484
265,SO - 0004628,2017-01-07,Wholesale,10,1192.6000000000001,11926.000000000002,918.3020000000001,274.298,Kazu Corp,Product 4,St. Joseph County,IN,Indiana,City,41.68338,-86.25001,101516,Midwest,2885560.824
266,SO - 000771,2017-01-07,Distributor,5,978.2,4891.0,489.1,489.1,Ascend Ltd,Product 12,Suffolk County,NY,New York,CDP,40.78121,-73.24623,59436,Northeast,1356976.996
267,SO - 0002527,2017-01-07,Wholesale,5,1145.7,5728.5,905.1030000000001,240.59699999999998,Ascend Ltd,Product 5,Hennepin County,MN,Minnesota,City,44.85469,-93.47079,63496,Midwest,3925424.5420000004
268,SO - 0004892,2017-01-07,Export,12,3932.9,47194.8,1691.147,2241.753,Liberty Group,Product 9,Ocean County,NJ,New Jersey,Township,40.07706,-74.20037,99262,Northeast,710415.405
269,SO - 0004896,2017-01-07,Export,12,844.2,10130.400000000001,438.98400000000004,405.216,MEIJER Corp,Product 9,Newport News city,VA,Virginia,City,36.97876,-76.428,182385,South,710415.405
270,SO - 0008019,2017-01-07,Wholesale,12,6097.0,73164.0,3353.3500000000004,2743.6499999999996,Gabvine Ltd,Product 5,Hudson County,NJ,New Jersey,City,40.72816,-74.07764,264290,Northeast,3925424.5420000004
271,SO - 0009962,2017-01-07,Wholesale,6,3819.0,22914.0,2253.21,1565.79,Kaymbo Company,Product 1,Orange County,CA,California,City,33.60002,-117.672,97156,West,3016489.209
272,SO - 0008192,2017-01-07,Wholesale,8,1031.8,8254.4,825.44,206.3599999999999,Walgreen Corp,Product 5,New Castle County,DE,Delaware,City,39.74595,-75.54659,71948,South,3925424.5420000004
273,SO - 0002899,2017-01-07,Wholesale,11,4020.0,44220.0,2814.0,1206.0,Valeant Corp,Product 6,Monterey County,CA,California,City,36.67774,-121.6555,157380,West,1672229.416
274,SO - 0004572,2017-01-07,Wholesale,8,2385.2000000000003,19081.600000000002,1526.5280000000002,858.672,Avamba Company,Product 26,McHenry County,IL,Illinois,Township,42.19807,-88.27594,87697,Midwest,5685138.2700000005
275,SO - 0005901,2017-01-07,Wholesale,7,3021.7000000000003,21151.9,1843.237,1178.4630000000002,Ascend Ltd,Product 14,Jefferson County,CO,Colorado,City,39.70471,-105.08137,152597,West,4028698.4090000005
276,SO - 0006476,2017-01-07,Export,11,2834.1,31175.1,1303.686,1530.414,Terumo Corp,Product 18,St. Louis city,MO,Missouri,City,38.62727,-90.19789,315685,Midwest,2309499.045
277,SO - 0010503,2017-01-07,Wholesale,8,5272.900000000001,42183.200000000004,2372.8050000000003,2900.0950000000003,Safecor Corp,Product 16,Hartford County,CT,Connecticut,Town,41.68158,-72.94075,60452,Northeast,2062061.144
278,SO - 0010673,2017-01-07,Distributor,11,1112.2,12234.2,500.49,611.71,Bluezoom Group,Product 2,Kaufman County/Dallas County,TX,Texas,City,32.76288,-96.58877,144788,South,3050087.565
279,SO - 0001539,2017-01-08,Distributor,8,6097.0,48776.0,3048.5,3048.5,Thoughtmix Ltd,Product 2,Westchester County,NY,New York,Town,41.02928,-73.84285,92029,Northeast,3050087.565
280,SO - 0004606,2017-01-08,Export,9,6304.7,56742.299999999996,4161.102,2143.598,Devpoint Group,Product 21,Orange County,CA,California,City,33.88863,-117.81311,67973,West,959899.2180000001
281,SO - 0004879,2017-01-08,Wholesale,10,2257.9,22579.0,1151.529,1106.371,Terumo Corp,Product 15,Sangamon County,IL,Illinois,City,39.80172,-89.64371,116565,Midwest,3299478.315
282,SO - 0005571,2017-01-08,Wholesale,9,1112.2,10009.800000000001,556.1,556.1,Chatterbri Ltd,Product 26,Camden County,NJ,New Jersey,Township,39.79219,-75.03606,63939,Northeast,5685138.2700000005
283,SO - 0008887,2017-01-08,Wholesale,5,5735.2,28676.0,3670.528,2064.672,Zoomdog Corp,Product 25,Richmond County,GA,Georgia,Consolidated Government,33.36149,-82.075,201793,South,5342315.484
284,SO - 0009622,2017-01-08,Export,7,2304.8,16133.600000000002,1682.5040000000001,622.296,Rochester Group,Product 24,Mercer County,NJ,New Jersey,City,40.21705,-74.74294,84225,Northeast,756557.97
285,SO - 000779,2017-01-08,Export,8,1748.7,13989.6,944.2980000000001,804.4019999999999,Yodoo Ltd,Product 5,Hartford County,CT,Connecticut,City,41.66121,-72.77954,72808,Northeast,3925424.5420000004
286,SO - 000889,2017-01-08,Wholesale,10,3865.9,38659.0,1739.655,2126.245,Browsetype Corp,Product 25,Ocean County,NJ,New Jersey,CDP,39.95373,-74.19792,89459,Northeast,5342315.484
287,SO - 0001475,2017-01-08,Wholesale,8,1306.5,10452.0,940.68,365.82000000000005,US Ltd,Product 6,New Haven County,CT,Connecticut,Town,41.22509,-73.06111,53592,Northeast,1672229.416
288,SO - 0002994,2017-01-08,Distributor,9,1132.3,10190.699999999999,735.995,396.30499999999995,H Ltd,Product 27,Fulton County,GA,Georgia,City,33.92427,-84.37854,105330,South,964940.2310000001
289,SO - 0003601,2017-01-08,Distributor,7,1038.5,7269.5,872.3399999999999,166.16000000000008,Pfizer Corp,Product 14,Monroe County,IN,Indiana,City,39.16533,-86.52639,84067,Midwest,4028698.4090000005
290,SO - 0005106,2017-01-08,Export,10,2680.0,26800.0,1795.6000000000001,884.3999999999999,Eidel Corp,Product 26,Washington County,OR,Oregon,City,45.52289,-122.98983,102347,West,5685138.2700000005
291,SO - 0006169,2017-01-08,Wholesale,12,837.5,10050.0,628.125,209.375,Avavee Group,Product 16,Richmond city,VA,Virginia,City,37.55376,-77.46026,220289,South,2062061.144
292,SO - 0006913,2017-01-08,Distributor,11,1869.3,20562.3,1271.124,598.1759999999999,Buzzshare Company,Product 28,Tippecanoe County,IN,Indiana,Township,40.42871,-86.85277,53100,Midwest,1003867.767
293,SO - 0007137,2017-01-08,Wholesale,7,1782.2,12475.4,1497.048,285.15200000000004,Twimbo Company,Product 15,Erie County,NY,New York,City,42.88645,-78.87837,258071,Northeast,3299478.315
294,SO - 0009401,2017-01-08,Wholesale,6,3705.1,22230.6,2260.111,1444.989,Shuffledri Group,Product 8,McLean County,IL,Illinois,City,40.4842,-88.99369,78292,Midwest,1085037.3290000001
295,SO - 0010259,2017-01-08,Export,6,6224.3,37345.8,3921.309,2302.991,Rochester Group,Product 28,Sarasota County,FL,Florida,City,27.33643,-82.53065,55118,South,1003867.767
296,SO - 000191,2017-01-08,Distributor,10,3430.4,34304.0,1989.6319999999998,1440.7680000000003,Blogtags Ltd,Product 14,Stanislaus County,CA,California,City,37.49466,-120.84659,72292,West,4028698.4090000005
297,SO - 0001259,2017-01-08,Distributor,8,3825.7000000000003,30605.600000000002,2601.4760000000006,1224.2239999999997,Unit Ltd,Product 19,Yolo County,CA,California,City,38.67852,-121.7733,58567,West,1645841.6
298,SO - 0002319,2017-01-08,Wholesale,6,850.9,5105.4,646.684,204.216,Zoovu Corp,Product 30,Fairfield County,CT,Connecticut,CDP,41.18454,-73.13317,52092,Northeast,1011609.684
299,SO - 0002862,2017-01-08,Distributor,11,1058.6000000000001,11644.600000000002,645.7460000000001,412.85400000000004,Neutrogena Ltd,Product 3,Pima County,AZ,Arizona,CDP,32.32341,-110.9951,68525,West,2642352.432
300,SO - 0003410,2017-01-08,Export,11,2358.4,25942.4,1532.96,825.44,Chatterpoi Corp,Product 14,Hamilton County,IN,Indiana,City,40.04559,-86.0086,59093,Midwest,4028698.4090000005
301,SO - 0004552,2017-01-08,Wholesale,6,1742.0,10452.0,923.26,818.74,Zoomdog Corp,Product 14,Suffolk County,MA,Massachusetts,City,42.40843,-71.01199,53422,Northeast,4028698.4090000005
302,SO - 0008000,2017-01-08,Distributor,11,2546.0,28006.0,1731.2800000000002,814.7199999999998,Zava Group,Product 1,Washington County,OR,Oregon,City,45.43123,-122.77149,51253,West,3016489.209
303,SO - 0008876,2017-01-08,Wholesale,6,1996.6000000000001,11979.6,1217.9260000000002,778.674,Ascend Ltd,Product 25,Collin County/Denton County,TX,Texas,City,33.05077,-96.74794,283558,South,5342315.484
304,SO - 0009809,2017-01-08,Distributor,5,1098.8,5494.0,505.448,593.352,Flipstorm Group,Product 25,Will County,IL,Illinois,Township,41.59381,-88.19968,81678,Midwest,5342315.484
305,SO - 0001169,2017-01-08,Export,10,2546.0,25460.0,1782.1999999999998,763.8000000000002,Chatterpoi Corp,Product 26,San Diego County,CA,California,City,33.11921,-117.08642,151451,West,5685138.2700000005
306,SO - 0001887,2017-01-08,Distributor,9,1775.5,15979.5,1349.38,426.1199999999999,General Company,Product 26,McHenry County,IL,Illinois,Township,42.19807,-88.27594,87697,Midwest,5685138.2700000005
307,SO - 0002137,2017-01-08,Distributor,12,2492.4,29908.800000000003,1395.7440000000001,1096.656,Tekfly Group,Product 12,Ventura County,CA,California,City,34.21639,-119.0376,67608,West,1356976.996
308,SO - 0003305,2017-01-08,Wholesale,6,2572.8,15436.800000000001,1698.0480000000002,874.752,Bluezoom Group,Product 2,Westchester County,NY,New York,City,40.9126,-73.83708,68628,Northeast,3050087.565
309,SO - 0004920,2017-01-08,Wholesale,6,3993.2000000000003,23959.2,3154.628,838.5720000000001,Golden Corp,Product 18,Hartford County,CT,Connecticut,City,41.67176,-72.94927,60452,Northeast,2309499.045
310,SO - 0006069,2017-01-08,Distributor,10,2211.0,22110.0,906.51,1304.49,Viva Ltd,Product 24,Orange County/Jefferson County,TX,Texas,City,29.8334,-93.96632,55340,South,756557.97
311,SO - 0006519,2017-01-08,Wholesale,8,1031.8,8254.4,546.854,484.9459999999999,Pacific Ltd,Product 26,Hudson County,NJ,New Jersey,City,40.66871,-74.11431,66311,Northeast,5685138.2700000005
312,SO - 0001485,2017-01-08,Wholesale,11,3658.2000000000003,40240.200000000004,2707.068,951.1320000000001,Janyx Group,Product 5,Monroe County,IN,Indiana,Township,39.11904,-86.51979,53382,Midwest,3925424.5420000004
313,SO - 0002118,2017-01-08,Wholesale,10,3959.7000000000003,39597.0,1663.074,2296.626,Yombu Corp,Product 21,Leon County,FL,Florida,City,30.43826,-84.28073,189907,South,959899.2180000001
314,SO - 0004078,2017-01-08,Wholesale,6,1139.0,6834.0,501.16,637.8399999999999,Fivechat Company,Product 5,Lancaster County,PA,Pennsylvania,City,40.03788,-76.30551,59339,Northeast,3925424.5420000004
315,SO - 0005023,2017-01-08,Wholesale,7,3859.2000000000003,27014.4,1891.008,1968.1920000000002,Organon Corp,Product 26,Prince George's County,MD,Maryland,City,38.94278,-76.73028,58025,South,5685138.2700000005
316,SO - 0006156,2017-01-08,Wholesale,12,1835.8,22029.6,972.974,862.8259999999999,CLINIQUE Ltd,Product 1,San Diego County,CA,California,City,32.83838,-116.97392,57787,West,3016489.209
317,SO - 0007889,2017-01-08,Wholesale,9,5051.8,45466.200000000004,3081.598,1970.2020000000002,Topiczoom Corp,Product 1,Kane County,IL,Illinois,Township,41.94151,-88.321,51812,Midwest,3016489.209
318,SO - 0007978,2017-01-08,Distributor,9,268.0,2412.0,160.79999999999998,107.20000000000002,Brightdog Corp,Product 13,Santa Cruz County,CA,California,City,36.97412,-122.0308,64220,West,3720639.645
319,SO - 0008940,2017-01-08,Distributor,6,2278.0,13668.0,1321.24,956.76,Arbor Company,Product 26,Macomb County,MI,Michigan,City,42.49698,-82.88881,59903,Midwest,5685138.2700000005
320,SO - 0001179,2017-01-08,Distributor,12,1045.2,12542.400000000001,585.3120000000001,459.8879999999999,Army Group,Product 27,Spokane County,WA,Washington,City,47.67323,-117.23937,94919,West,964940.2310000001
321,SO - 0003031,2017-01-08,Wholesale,12,254.6,3055.2,180.766,73.834,Zoonder Group,Product 28,Burleigh County,ND,North Dakota,City,46.80833,-100.78374,71167,Midwest,1003867.767
322,SO - 0003144,2017-01-08,Distributor,9,750.4,6753.599999999999,630.336,120.06399999999996,Yombu Corp,Product 17,San Diego County,CA,California,City,32.79477,-116.96253,103679,West,2119616.824
323,SO - 0003652,2017-01-08,Distributor,11,978.2,10760.2,469.536,508.66400000000004,Revitol Company,Product 1,Wayne County,MI,Michigan,City,42.24087,-83.26965,61568,Midwest,3016489.209
324,SO - 0005043,2017-01-08,Distributor,10,897.8000000000001,8978.0,466.85600000000005,430.944,Cadila Ltd,Product 18,Contra Costa County,CA,California,City,37.90631,-122.06496,68910,West,2309499.045
325,SO - 0001086,2017-01-09,Wholesale,5,5996.5,29982.5,3777.795,2218.705,Livepath Corp,Product 15,Marion County,IN,Indiana,Township,39.67674,-86.15616,113236,Midwest,3299478.315
326,SO - 0002917,2017-01-09,Wholesale,7,5038.400000000001,35268.8,2418.4320000000002,2619.9680000000003,Avamba Company,Product 3,Jefferson County,CO,Colorado,City,39.70471,-105.08137,152597,West,2642352.432
327,SO - 0004231,2017-01-09,Distributor,12,1051.9,12622.800000000001,831.0010000000001,220.899,Johnson Ltd,Product 25,Cook County,IL,Illinois,Township,42.0299,-87.97733,93295,Midwest,5342315.484
328,SO - 0005191,2017-01-09,Distributor,12,1172.5,14070.0,539.35,633.15,NARS Group,Product 25,Santa Cruz County,CA,California,City,36.97412,-122.0308,64220,West,5342315.484
329,SO - 0007771,2017-01-09,Distributor,8,2211.0,17688.0,1083.3899999999999,1127.6100000000001,Shuffledri Group,Product 26,Hennepin County,MN,Minnesota,City,45.01052,-93.45551,75907,Midwest,5685138.2700000005
330,SO - 0009804,2017-01-09,Distributor,5,5366.7,26833.5,2951.685,2415.015,General Company,Product 17,Suffolk city,VA,Virginia,City,36.72821,-76.58356,88161,South,2119616.824
331,SO - 0010321,2017-01-09,Wholesale,11,1031.8,11349.8,588.126,443.674,Eire Corp,Product 7,Tulare County,CA,California,City,36.33023,-119.29206,130104,West,889737.555
332,SO - 0010747,2017-01-09,Distributor,6,268.0,1608.0,152.76,115.24000000000001,Aveda Group,Product 8,Los Angeles County,CA,California,City,34.08057,-118.07285,54908,West,1085037.3290000001
333,SO - 000880,2017-01-09,Wholesale,9,6123.8,55114.200000000004,4960.278,1163.522,Trunyx Ltd,Product 4,Lehigh County/Northampton County,PA,Pennsylvania,City,40.62642,-75.3679,74892,Northeast,2885560.824
334,SO - 000996,2017-01-09,Distributor,6,1273.0,7638.0,814.72,458.28,WOONSOCKET Corp,Product 5,Adams County/Douglas County/Arapahoe County,CO,Colorado,City,39.688,-104.68974,359407,West,3925424.5420000004
335,SO - 0003392,2017-01-09,Wholesale,12,3859.2000000000003,46310.4,1698.0480000000002,2161.152,Cadila Ltd,Product 26,Los Angeles County,CA,California,City,33.98168,-118.22507,59430,West,5685138.2700000005
336,SO - 0003416,2017-01-09,Wholesale,10,3926.2000000000003,39262.0,3258.746,667.4540000000002,Aveda Group,Product 18,St. Charles County,MO,Missouri,City,38.80033,-90.62651,56971,Midwest,2309499.045
337,SO - 0003729,2017-01-09,Wholesale,9,6210.900000000001,55898.100000000006,4223.412,1987.4880000000003,Liberty Group,Product 15,Placer County,CA,California,City,38.79073,-121.23578,61213,West,3299478.315
338,SO - 0005540,2017-01-09,Export,11,3993.2000000000003,43925.200000000004,3354.288,638.9120000000003,Thoughtmix Ltd,Product 5,Riverside County,CA,California,City,34.00259,-117.46761,100314,West,3925424.5420000004
339,SO - 0007064,2017-01-09,Wholesale,10,3008.3,30083.0,2075.727,932.5730000000003,Pfizer Corp,Product 26,Newport News city,VA,Virginia,City,36.97876,-76.428,182385,South,5685138.2700000005
340,SO - 0007875,2017-01-09,Distributor,11,1956.4,21520.4,939.072,1017.3280000000001,Zoomzone Corp,Product 19,Tarrant County,TX,Texas,City,32.73569,-97.10807,388125,South,1645841.6
341,SO - 0002075,2017-01-09,Distributor,5,991.6,4958.0,743.7,247.89999999999998,Trunyx Ltd,Product 11,Lake County,IN,Indiana,Township,41.61329,-87.47085,157105,Midwest,1230458.484
342,SO - 0004908,2017-01-09,Wholesale,9,261.3,2351.7000000000003,143.71500000000003,117.58499999999998,CARDINAL Group,Product 26,Champaign County,IL,Illinois,City,40.11642,-88.24338,86096,Midwest,5685138.2700000005
343,SO - 0005037,2017-01-09,Distributor,10,2318.2000000000003,23182.000000000004,1553.1940000000002,765.0060000000001,Unit Ltd,Product 17,McLean County,IL,Illinois,Township,40.53839,-88.98528,54383,Midwest,2119616.824
344,SO - 0005621,2017-01-09,Distributor,11,6023.3,66256.3,3915.1450000000004,2108.1549999999997,Pixoboo Corp,Product 14,Baltimore County,MD,Maryland,CDP,39.25066,-76.52052,62186,South,4028698.4090000005
345,SO - 0008062,2017-01-09,Wholesale,10,3892.7000000000003,38927.0,2724.89,1167.8100000000004,Geiss Company,Product 18,Los Angeles County,CA,California,City,34.00944,-118.10528,63921,West,2309499.045
346,SO - 0008304,2017-01-09,Export,7,2552.7000000000003,17868.9,1480.566,1072.1340000000002,WOCKHARDT Group,Product 26,Johnson County,IN,Indiana,Township,39.58265,-86.095,57212,Midwest,5685138.2700000005
347,SO - 0008700,2017-01-09,Distributor,8,174.20000000000002,1393.6000000000001,142.844,31.356000000000023,Aromaticos Company,Product 18,Cook County,IL,Illinois,Town,41.84559,-87.75394,83886,Midwest,2309499.045
348,SO - 0009141,2017-01-09,Wholesale,9,1118.9,10070.1,704.907,413.99300000000005,Linkbuzz Ltd,Product 17,Los Angeles County,CA,California,City,33.83141,-118.28202,93281,West,2119616.824
349,SO - 000577,2017-01-09,Export,5,1011.7,5058.5,667.7220000000001,343.97799999999995,Skyvu Group,Product 17,Suffolk County,NY,New York,Town,40.84989,-72.46349,58254,Northeast,2119616.824
350,SO - 000786,2017-01-09,Wholesale,11,3008.3,33091.3,2406.6400000000003,601.6599999999999,Gabvine Ltd,Product 13,Oakland County,MI,Michigan,City,42.48531,-83.37716,81330,Midwest,3720639.645
351,SO - 0002842,2017-01-09,Export,6,1018.4,6110.4,427.72799999999995,590.672,Pixoboo Corp,Product 30,Cook County,IL,Illinois,Township,42.03209,-87.75778,106229,Midwest,1011609.684
352,SO - 0003048,2017-01-09,Wholesale,5,1775.5,8877.5,1065.3,710.2,Skippad Ltd,Product 13,McHenry County,IL,Illinois,Township,42.19807,-88.27594,87697,Midwest,3720639.645
353,SO - 0009507,2017-01-09,Wholesale,10,3028.4,30284.0,1877.608,1150.7920000000001,Devpoint Group,Product 2,Nassau County,NY,New York,Village,40.70621,-73.61874,55547,Northeast,3050087.565
354,SO - 0009767,2017-01-09,Export,10,3966.4,39664.0,2102.192,1864.208,BTA Corp,Product 16,Portsmouth city,VA,Virginia,City,36.83543,-76.29827,96201,South,2062061.144
355,SO - 000174,2017-01-09,Distributor,10,2659.9,26599.0,2154.5190000000002,505.38099999999986,Vitz Company,Product 4,New Hanover County,NC,North Carolina,City,34.22573,-77.94471,115933,South,2885560.824
356,SO - 000322,2017-01-09,Wholesale,11,2412.0,26532.0,1013.04,1398.96,Brightdog Corp,Product 19,Roanoke city,VA,Virginia,City,37.27097,-79.94143,99897,South,1645841.6
357,SO - 000887,2017-01-09,Distributor,7,1681.7,11771.9,1345.3600000000001,336.3399999999999,Skiptube Ltd,Product 25,Elkhart County,IN,Indiana,Township,41.65183,-85.94312,55462,Midwest,5342315.484
358,SO - 0003703,2017-01-09,Wholesale,8,247.9,1983.2,168.572,79.328,Blogtags Ltd,Product 14,Essex County,NJ,New Jersey,Township,40.72386,-74.23252,54580,Northeast,4028698.4090000005
359,SO - 0003739,2017-01-09,Wholesale,10,167.5,1675.0,110.55000000000001,56.94999999999999,Geiss Company,Product 2,Dallas County,TX,Texas,City,32.81402,-96.94889,236607,South,3050087.565
360,SO - 0005631,2017-01-09,Wholesale,6,2485.7000000000003,14914.2,1889.1320000000003,596.568,Oba Company,Product 7,Orange County,CA,California,City,33.88863,-117.81311,67973,West,889737.555
361,SO - 0006996,2017-01-09,Wholesale,9,180.9,1628.1000000000001,103.113,77.787,Browsetype Corp,Product 26,Los Angeles County,CA,California,City,34.57943,-118.11646,158351,West,5685138.2700000005
362,SO - 0009207,2017-01-09,Distributor,8,1728.6000000000001,13828.800000000001,726.0120000000001,1002.5880000000001,Thoughtmix Ltd,Product 1,Anne Arundel County,MD,Maryland,CDP,39.16261,-76.62469,67559,South,3016489.209
363,SO - 0008128,2017-01-09,Wholesale,7,6539.2,45774.4,4708.223999999999,1830.9760000000006,Tambee Company,Product 4,Knox County,TN,Tennessee,City,35.96064,-83.92074,185291,South,2885560.824
364,SO - 0004142,2017-01-09,Wholesale,6,2284.7000000000003,13708.2,1416.5140000000001,868.1860000000001,Safecor Corp,Product 6,Clark County,NV,Nevada,CDP,36.21108,-115.07306,187647,West,1672229.416
365,SO - 0009811,2017-01-09,Wholesale,9,958.1,8622.9,699.413,258.687,Kazu Corp,Product 26,Yellowstone County,MT,Montana,City,45.78329,-108.50069,110263,West,5685138.2700000005
366,SO - 0010769,2017-01-09,Wholesale,10,3872.6,38726.0,2749.546,1123.054,Golden Corp,Product 10,Sonoma County,CA,California,City,38.44047,-122.71443,174972,West,864331.624
367,SO - 0002383,2017-01-10,Wholesale,5,3778.8,18894.0,3023.0400000000004,755.7599999999998,Skiptube Ltd,Product 22,Tarrant County,TX,Texas,City,32.73569,-97.10807,388125,South,663601.902
368,SO - 0003482,2017-01-10,Distributor,11,1273.0,14003.0,954.75,318.25,Aibox Company,Product 13,McLean County,IL,Illinois,Township,40.47578,-88.96991,78292,Midwest,3720639.645
369,SO - 0006017,2017-01-10,Export,5,1775.5,8877.5,1296.115,479.385,Cogilith Group,Product 20,Providence County,RI,Rhode Island,City,41.77982,-71.43728,81073,Northeast,2067108.1199999999
370,SO - 0008236,2017-01-10,Distributor,10,3845.8,38458.0,1884.442,1961.3580000000002,EMD Group,Product 4,Volusia County,FL,Florida,City,29.13832,-80.99561,59866,South,2885560.824
371,SO - 0010451,2017-01-10,Export,7,1118.9,7832.300000000001,525.883,593.017,Zoomzone Corp,Product 26,Ottawa County,MI,Michigan,Charter Township,42.90538,-85.8446,50340,Midwest,5685138.2700000005
372,SO - 0008205,2017-01-10,Export,9,3919.5,35275.5,2822.04,1097.46,Fred's Company,Product 16,Volusia County,FL,Florida,City,29.13832,-80.99561,59866,South,2062061.144
373,SO - 0001181,2017-01-10,Distributor,6,2559.4,15356.400000000001,2124.302,435.09799999999996,Oba Company,Product 27,Smith County,TX,Texas,City,32.35126,-95.30106,103700,South,964940.2310000001
374,SO - 0007086,2017-01-10,Wholesale,7,2345.0,16415.0,1219.4,1125.6,Aibox Company,Product 26,St. Charles County,MO,Missouri,City,38.80033,-90.62651,56971,Midwest,5685138.2700000005
375,SO - 0010104,2017-01-10,Distributor,7,3879.3,27155.100000000002,3219.819,659.4810000000002,US Ltd,Product 12,Monterey County,CA,California,City,36.67774,-121.6555,157380,West,1356976.996
376,SO - 0008564,2017-01-10,Distributor,6,3289.7000000000003,19738.2,1480.3650000000002,1809.335,Rochester Group,Product 19,Newport News city,VA,Virginia,City,36.97876,-76.428,182385,South,1645841.6
377,SO - 0010116,2017-01-10,Export,11,2659.9,29258.9,1861.9299999999998,797.9700000000003,Topco Company,Product 23,Adams County/Douglas County/Arapahoe County,CO,Colorado,City,39.688,-104.68974,359407,West,1135815.7580000001
378,SO - 0009426,2017-01-10,Wholesale,12,2311.5,27738.0,1109.52,1201.98,Bluezoom Group,Product 13,Allen County,IN,Indiana,Township,41.13925,-85.05898,74550,Midwest,3720639.645
379,SO - 0002929,2017-01-10,Distributor,8,3986.5,31892.0,1594.6000000000001,2391.8999999999996,Chatterpoi Corp,Product 25,Johnson County,KS,Kansas,City,38.95362,-94.73357,52490,Midwest,5342315.484
380,SO - 0005255,2017-01-10,Wholesale,5,1929.6000000000001,9648.0,1485.7920000000001,443.808,Chatterbri Ltd,Product 13,Orange County,FL,Florida,CDP,28.55778,-81.4534,64516,South,3720639.645
381,SO - 000862,2017-01-10,Wholesale,11,1139.0,12529.0,717.57,421.42999999999995,Zooveo Company,Product 14,Alameda County,CA,California,City,37.54827,-121.98857,232206,West,4028698.4090000005
382,SO - 0001674,2017-01-10,Wholesale,10,207.70000000000002,2077.0,83.08000000000001,124.62,Aimbo Corp,Product 3,San Diego County,CA,California,City,32.83838,-116.97392,57787,West,2642352.432
383,SO - 0003352,2017-01-10,Wholesale,12,1795.6000000000001,21547.2,1256.92,538.6800000000001,EMD Group,Product 15,Fort Bend County/Harris County/Brazoria County,TX,Texas,City,29.55576,-95.32307,108821,South,3299478.315
384,SO - 0005026,2017-01-10,Wholesale,5,2566.1,12830.5,1950.2359999999999,615.864,Brightdog Corp,Product 8,Alameda County,CA,California,City,37.68187,-121.76801,88126,West,1085037.3290000001
385,SO - 0005739,2017-01-10,Wholesale,5,1132.3,5661.5,600.119,532.1809999999999,Blogspan Ltd,Product 13,Riverside County,CA,California,City,34.00259,-117.46761,100314,West,3720639.645
386,SO - 0006620,2017-01-10,Distributor,6,1085.4,6512.400000000001,770.634,314.7660000000001,ALK-Abello Ltd,Product 17,San Bernardino County,CA,California,City,34.03363,-117.04309,53328,West,2119616.824
387,SO - 0009655,2017-01-10,Wholesale,11,1072.0,11792.0,536.0,536.0,Divanoodle Ltd,Product 15,Garfield County,OK,Oklahoma,City,36.39559,-97.87839,51776,South,3299478.315
388,SO - 0009438,2017-01-10,Wholesale,8,2492.4,19939.2,2043.768,448.63200000000006,Ozu Ltd,Product 20,Albany County,NY,New York,Town,42.74333,-73.7856,83661,Northeast,2067108.1199999999
389,SO - 0009952,2017-01-10,Distributor,8,261.3,2090.4,154.167,107.13300000000001,Skyvu Group,Product 25,Frederick County,MD,Maryland,City,39.41427,-77.41054,69479,South,5342315.484
390,SO - 0008368,2017-01-10,Distributor,5,3457.2000000000003,17286.0,1486.596,1970.6040000000003,Organon Corp,Product 13,Los Angeles County,CA,California,City,33.88168,-118.11701,78441,West,3720639.645
391,SO - 000388,2017-01-10,Distributor,11,1045.2,11497.2,804.8040000000001,240.39599999999996,Quaxo Ltd,Product 18,Victoria County,TX,Texas,City,28.80527,-97.0036,67574,South,2309499.045
392,SO - 000792,2017-01-10,Distributor,9,1011.7,9105.300000000001,505.85,505.85,SAFEWAY Ltd,Product 19,Allegheny County,PA,Pennsylvania,City,40.44062,-79.99589,304391,Northeast,1645841.6
393,SO - 000870,2017-01-10,Wholesale,7,2834.1,19838.7,1190.322,1643.778,Twitterbri Ltd,Product 28,Monterey County,CA,California,City,36.67774,-121.6555,157380,West,1003867.767
394,SO - 0002688,2017-01-10,Distributor,12,924.6,11095.2,591.744,332.856,Tambee Company,Product 15,Williamson County/Travis County,TX,Texas,City,30.455,-97.60847,57122,South,3299478.315
395,SO - 0003535,2017-01-10,Wholesale,5,1976.5,9882.5,1462.61,513.8900000000001,Internatio Company,Product 14,Wayne County,MI,Michigan,City,42.24087,-83.26965,61568,Midwest,4028698.4090000005
396,SO - 0005793,2017-01-10,Distributor,8,1118.9,8951.2,593.017,525.883,Cadila Ltd,Product 14,San Bernardino County,CA,California,City,34.03363,-117.04309,53328,West,4028698.4090000005
397,SO - 0006177,2017-01-10,Wholesale,5,1165.8,5829.0,571.242,594.558,Eidel Corp,Product 25,Prince William County,VA,Virginia,CDP,38.63706,-77.31109,70381,South,5342315.484
398,SO - 0006512,2017-01-10,Distributor,5,1005.0,5025.0,603.0,402.0,Talane Group,Product 26,Limestone County/Morgan County,AL,Alabama,City,34.57332,-86.99214,55437,South,5685138.2700000005
399,SO - 0006580,2017-01-10,Distributor,8,2881.0,23048.0,2189.56,691.44,Eire Corp,Product 17,Leon County,FL,Florida,City,30.43826,-84.28073,189907,South,2119616.824
400,SO - 0008295,2017-01-10,Wholesale,9,3162.4,28461.600000000002,1739.3200000000002,1423.08,CLINIQUE Ltd,Product 14,Jefferson County,CO,Colorado,City,39.70471,-105.08137,152597,West,4028698.4090000005
401,SO - 0009267,2017-01-10,Distributor,6,3879.3,23275.800000000003,3142.233,737.067,BTA Corp,Product 10,Marion County.,IN,Indiana,City,39.778,-86.14584,862781,Midwest,864331.624
402,SO - 0008337,2017-01-10,Distributor,10,1105.5,11055.0,442.20000000000005,663.3,Valeant Corp,Product 18,Charleston County,SC,South Carolina,Town,32.79407,-79.86259,81317,South,2309499.045
403,SO - 0006930,2017-01-10,Distributor,7,2592.9,18150.3,1089.018,1503.882,Podcat Corp,Product 25,Hennepin County,MN,Minnesota,City,45.01052,-93.45551,75907,Midwest,5342315.484
404,SO - 0007924,2017-01-10,Export,10,268.0,2680.0,217.08,50.91999999999999,SUPERVALU Ltd,Product 15,Los Angeles County,CA,California,City,33.95474,-118.21202,96401,West,3299478.315
405,SO - 0007930,2017-01-10,Wholesale,9,1045.2,9406.800000000001,512.148,533.052,Kaymbo Company,Product 15,Cook County,IL,Illinois,Township,42.04639,-87.69435,75527,Midwest,3299478.315
406,SO - 0009365,2017-01-10,Distributor,12,864.3000000000001,10371.6,561.7950000000001,302.505,Tekfly Group,Product 5,Utah County,UT,Utah,City,40.39162,-111.85077,58486,West,3925424.5420000004
407,SO - 0009252,2017-01-10,Distributor,6,2485.7000000000003,14914.2,1292.564,1193.1360000000002,Skiptube Ltd,Product 4,Sacramento County,CA,California,CDP,38.60336,-121.38005,92844,West,2885560.824
408,SO - 0001559,2017-01-11,Wholesale,7,1989.9,13929.300000000001,835.758,1154.142,Jabbercube Corp,Product 21,San Diego County,CA,California,City,32.71533,-117.15726,1394928,West,959899.2180000001
409,SO - 0003823,2017-01-11,Distributor,5,737.0,3685.0,346.39,390.61,Arbor Company,Product 4,Yuma County,AZ,Arizona,City,32.72532,-114.6244,94139,West,2885560.824
410,SO - 0005488,2017-01-11,Distributor,5,6465.5,32327.5,4073.265,2392.235,Amerisourc Corp,Product 26,Anoka County,MN,Minnesota,City,45.11997,-93.28773,62240,Midwest,5685138.2700000005
411,SO - 0006800,2017-01-11,Export,11,2519.2000000000003,27711.200000000004,1058.064,1461.1360000000002,Cadila Ltd,Product 3,Baltimore County,MD,Maryland,CDP,39.25066,-76.52052,62186,South,2642352.432
412,SO - 0007102,2017-01-11,Wholesale,6,2318.2000000000003,13909.2,1947.2880000000002,370.91200000000003,Oba Company,Product 26,Sacramento County,CA,California,CDP,38.60336,-121.38005,92844,West,5685138.2700000005
413,SO - 0007855,2017-01-11,Wholesale,9,958.1,8622.9,421.564,536.5360000000001,sanofi-ave Group,Product 7,Volusia County,FL,Florida,City,29.13832,-80.99561,59866,South,889737.555
414,SO - 0009438,2017-01-11,Wholesale,8,2492.4,19939.2,2043.768,448.63200000000006,Ozu Ltd,Product 20,Orange County,FL,Florida,CDP,28.5641,-81.2114,85561,South,2067108.1199999999
415,SO - 0009190,2017-01-11,Wholesale,10,3075.3,30753.0,1722.1680000000003,1353.1319999999998,Gabvine Ltd,Product 25,San Mateo County,CA,California,City,37.56299,-122.32553,103536,West,5342315.484
416,SO - 0009303,2017-01-11,Wholesale,12,837.5,10050.0,628.125,209.375,Avavee Group,Product 16,Essex County,NJ,New Jersey,City,40.73566,-74.17237,281944,Northeast,2062061.144
417,SO - 0004286,2017-01-11,Wholesale,6,703.5,4221.0,337.68,365.82,Meejo Corp,Product 19,San Bernardino County,CA,California,City,34.05557,-117.18254,71035,West,1645841.6
418,SO - 0004310,2017-01-11,Distributor,11,1112.2,12234.2,912.004,200.19600000000003,Cadila Ltd,Product 17,Durham County/Wake County,NC,North Carolina,City,35.8306,-78.64177,451066,South,2119616.824
419,SO - 0005286,2017-01-11,Export,6,1159.1000000000001,6954.6,486.82200000000006,672.278,Gabvine Ltd,Product 13,Mecklenburg County,NC,North Carolina,City,35.22709,-80.84313,827097,South,3720639.645
420,SO - 0005853,2017-01-11,Distributor,6,2244.5,13467.0,1077.36,1167.14,Kaymbo Company,Product 25,Macomb County,MI,Michigan,City,42.58031,-83.0302,132052,Midwest,5342315.484
421,SO - 0006029,2017-01-11,Export,7,201.0,1407.0,84.42,116.58,Safecor Corp,Product 23,Hudson County,NJ,New Jersey,City,40.74399,-74.03236,53635,Northeast,1135815.7580000001
422,SO - 0007760,2017-01-11,Export,8,1333.3,10666.4,719.982,613.318,ALK-Abello Ltd,Product 26,Baltimore County,MD,Maryland,CDP,39.4015,-76.60191,57146,South,5685138.2700000005
423,SO - 0009202,2017-01-11,Wholesale,7,2458.9,17212.3,1303.217,1155.683,Kazu Corp,Product 21,Cass County,ND,North Dakota,City,46.87719,-96.7898,118523,Midwest,959899.2180000001
424,SO - 0009993,2017-01-11,Wholesale,11,3872.6,42598.6,1665.2179999999998,2207.382,Skyvu Group,Product 1,Middlesex County,MA,Massachusetts,City,42.41843,-71.10616,57403,Northeast,3016489.209
425,SO - 0004528,2017-01-11,Wholesale,11,6358.3,69941.3,3942.146,2416.154,BTA Corp,Product 25,San Joaquin County,CA,California,City,38.1302,-121.27245,64596,West,5342315.484
426,SO - 0005326,2017-01-11,Distributor,8,917.9,7343.2,771.036,146.86400000000003,Mydo Corp,Product 4,Erie County,NY,New York,Town,42.91002,-78.74182,87514,Northeast,2885560.824
427,SO - 0005945,2017-01-11,Distributor,5,5956.3,29781.5,3216.4020000000005,2739.8979999999997,Zoonoodle Ltd,Product 11,Madera County,CA,California,City,36.96134,-120.06072,64208,West,1230458.484
428,SO - 0007016,2017-01-11,Export,11,1098.8,12086.8,813.112,285.688,Kaymbo Company,Product 3,Burleigh County,ND,North Dakota,City,46.80833,-100.78374,71167,Midwest,2642352.432
429,SO - 0009589,2017-01-11,Wholesale,11,837.5,9212.5,644.875,192.625,Geiss Company,Product 2,Hennepin County,MN,Minnesota,City,44.8408,-93.29828,86435,Midwest,3050087.565
430,SO - 000898,2017-01-11,Distributor,5,690.1,3450.5,338.149,351.951,Browsebug Company,Product 5,Salt Lake County,UT,Utah,City,40.76078,-111.89105,192672,West,3925424.5420000004
431,SO - 0002918,2017-01-11,Wholesale,7,3859.2000000000003,27014.4,1736.64,2122.5600000000004,Pfizer Corp,Product 26,Monmouth County,NJ,New Jersey,Township,40.40709,-74.06984,66024,Northeast,5685138.2700000005
432,SO - 0003817,2017-01-11,Wholesale,11,261.3,2874.3,109.746,151.55400000000003,Wordpedia Ltd,Product 4,Ocean County,NJ,New Jersey,Township,40.0908,-74.36126,56416,Northeast,2885560.824
433,SO - 0007911,2017-01-11,Wholesale,10,6324.8,63248.0,2719.664,3605.136,State Ltd,Product 13,Middlesex County,MA,Massachusetts,City,42.3751,-71.10561,110402,Northeast,3720639.645
434,SO - 0008062,2017-01-11,Wholesale,10,3892.7000000000003,38927.0,2724.89,1167.8100000000004,Geiss Company,Product 18,Will County,IL,Illinois,Township,41.5136,-87.84645,58934,Midwest,2309499.045
435,SO - 0009975,2017-01-11,Export,5,3819.0,19095.0,2864.25,954.75,Flipstorm Group,Product 1,Bernalillo County,NM,New Mexico,City,35.08449,-106.65114,559121,West,3016489.209
436,SO - 0009886,2017-01-11,Wholesale,11,3906.1,42967.1,3203.002,703.098,Valeant Corp,Product 13,Vanderburgh County,IN,Indiana,City,37.97476,-87.55585,119943,Midwest,3720639.645
437,SO - 0009556,2017-01-11,Distributor,10,2646.5,26465.0,1879.0149999999999,767.4850000000001,Nexus Group,Product 13,Rockwall County/Collin County/Dallas County,TX,Texas,City,32.90983,-96.63033,236897,South,3720639.645
438,SO - 0003617,2017-01-11,Distributor,11,1132.3,12455.3,679.38,452.91999999999996,Realbridge Corp,Product 19,Bossier Parish,LA,Louisiana,City,32.51599,-93.73212,68094,South,1645841.6
439,SO - 0010398,2017-01-11,Wholesale,10,268.0,2680.0,211.72,56.28,Remedy Ltd,Product 2,Orange County,CA,California,City,33.74585,-117.82617,80583,West,3050087.565
440,SO - 0001745,2017-01-11,Wholesale,5,1118.9,5594.5,682.529,436.3710000000001,Remedy Ltd,Product 20,Stark County,OH,Ohio,City,40.79895,-81.37845,71885,Midwest,2067108.1199999999
441,SO - 0003116,2017-01-11,Export,12,1058.6000000000001,12703.2,476.37000000000006,582.23,Fivebridge Ltd,Product 7,Pierce County,WA,Washington,City,47.17176,-122.51846,59829,West,889737.555
442,SO - 0003672,2017-01-11,Wholesale,12,3939.6,47275.2,2836.5119999999997,1103.0880000000002,Internatio Company,Product 5,Dakota County,MN,Minnesota,City,44.73191,-93.21772,51221,Midwest,3925424.5420000004
443,SO - 0005191,2017-01-11,Distributor,12,1172.5,14070.0,539.35,633.15,NARS Group,Product 25,Santa Cruz County,CA,California,City,36.91023,-121.75689,53628,West,5342315.484
444,SO - 0006121,2017-01-11,Distributor,10,1038.5,10385.0,571.1750000000001,467.32499999999993,EMD Group,Product 25,Mesa County,CO,Colorado,City,39.06387,-108.55065,60358,West,5342315.484
445,SO - 0006163,2017-01-11,Wholesale,10,1058.6000000000001,10586.000000000002,529.3000000000001,529.3000000000001,Skajo Ltd,Product 5,Macon County,IL,Illinois,Township,39.8463,-88.95822,50930,Midwest,3925424.5420000004
446,SO - 0006366,2017-01-11,Wholesale,5,1715.2,8576.0,1080.576,634.624,Snaptags Ltd,Product 14,Riverside County,CA,California,City,33.93752,-117.23059,204198,West,4028698.4090000005
447,SO - 0008885,2017-01-11,Wholesale,5,1943.0,9715.0,1651.55,291.45000000000005,Zava Group,Product 2,DuPage County,IL,Illinois,Township,41.7543,-87.97753,149401,Midwest,3050087.565
448,SO - 0008718,2017-01-11,Wholesale,5,187.6,938.0,138.82399999999998,48.77600000000001,Realpoint Corp,Product 18,Mecklenburg County,NC,North Carolina,Town,35.41069,-80.84285,52704,South,2309499.045
449,SO - 0001944,2017-01-12,Distributor,8,3718.5,29748.0,1970.805,1747.695,Yodoo Ltd,Product 14,Broward County,FL,Florida,City,26.24453,-80.20644,57234,South,4028698.4090000005
450,SO - 0004311,2017-01-12,Wholesale,7,1018.4,7128.8,631.408,386.99199999999996,Vitz Company,Product 25,Orange County,CA,California,City,33.64113,-117.91867,113204,West,5342315.484
451,SO - 0005821,2017-01-12,Wholesale,5,180.9,904.5,133.866,47.03399999999999,Dazzlesphe Corp,Product 2,Galveston County/Harris County,TX,Texas,City,29.49006,-95.10909,98312,South,3050087.565
452,SO - 0008969,2017-01-12,Export,12,1092.1000000000001,13105.2,709.8650000000001,382.235,Liberty Group,Product 24,Montgomery County,MD,Maryland,CDP,39.17316,-77.27165,88717,South,756557.97
453,SO - 0010503,2017-01-12,Wholesale,8,5272.900000000001,42183.200000000004,2372.8050000000003,2900.0950000000003,Safecor Corp,Product 16,Erie County,NY,New York,City,42.88645,-78.87837,258071,Northeast,2062061.144
454,SO - 0008684,2017-01-12,Export,5,1098.8,5494.0,516.4359999999999,582.364,Skidoo Company,Product 10,Howard County,MD,Maryland,CDP,39.26733,-76.79831,68507,South,864331.624
455,SO - 0001065,2017-01-12,Export,6,924.6,5547.6,406.824,517.7760000000001,Cogidoo Company,Product 4,Broward County,FL,Florida,City,26.27119,-80.2706,129485,South,2885560.824
456,SO - 0003283,2017-01-12,Wholesale,12,6418.6,77023.20000000001,3145.114,3273.4860000000003,Fivebridge Ltd,Product 15,Tom Green County,TX,Texas,City,31.46377,-100.43704,100450,South,3299478.315
457,SO - 0004138,2017-01-12,Distributor,9,1889.4,17004.600000000002,1095.852,793.548,Janyx Group,Product 26,McHenry County,IL,Illinois,Township,42.19807,-88.27594,87697,Midwest,5685138.2700000005
458,SO - 0004351,2017-01-12,Wholesale,11,6304.7,69351.7,4413.29,1891.4099999999999,Snaptags Ltd,Product 3,York County,SC,South Carolina,City,34.92487,-81.02508,71548,South,2642352.432
459,SO - 0004928,2017-01-12,Wholesale,12,2532.6,30391.199999999997,1063.692,1468.908,Roomm Company,Product 15,Riverside County,CA,California,City,33.77974,-116.46529,53826,West,3299478.315
460,SO - 0010317,2017-01-12,Distributor,9,268.0,2412.0,222.44,45.56,Wordpedia Ltd,Product 13,Riverside County,CA,California,City,34.00259,-117.46761,100314,West,3720639.645
461,SO - 0008729,2017-01-12,Distributor,9,3504.1,31536.899999999998,1997.3369999999998,1506.7630000000001,SUPERVALU Ltd,Product 3,Prince George's County,MD,Maryland,City,38.94278,-76.73028,58025,South,2642352.432
462,SO - 0010407,2017-01-12,Distributor,11,6237.7,68614.7,4304.013,1933.687,Roberts Company,Product 12,New Haven County,CT,Connecticut,City,41.27065,-72.94705,54927,Northeast,1356976.996
463,SO - 0001796,2017-01-12,Wholesale,9,1721.9,15497.1,1360.3010000000002,361.59899999999993,Yodoo Ltd,Product 3,San Bernardino County,CA,California,City,34.09223,-117.43505,207460,West,2642352.432
464,SO - 0002728,2017-01-12,Distributor,11,1112.2,12234.2,878.638,233.562,Zava Group,Product 26,Miami-Dade County,FL,Florida,City,25.46872,-80.47756,66498,South,5685138.2700000005
465,SO - 0002774,2017-01-12,Wholesale,6,3886.0,23316.0,1981.8600000000001,1904.1399999999999,Mita Corp,Product 26,DuPage County,IL,Illinois,Township,41.94563,-88.08462,113024,Midwest,5685138.2700000005
466,SO - 0003309,2017-01-12,Export,7,2351.7000000000003,16461.9,1622.673,729.0270000000003,Vimbo Company,Product 19,Berkeley County/Charleston County,SC,South Carolina,City,32.81793,-79.95896,132609,South,1645841.6
467,SO - 0006626,2017-01-12,Wholesale,8,2472.3,19778.4,988.9200000000001,1483.38,Vimbo Company,Product 4,Marion County,IN,Indiana,Township,39.77186,-86.26094,142010,Midwest,2885560.824
468,SO - 0010624,2017-01-12,Wholesale,8,3999.9,31999.2,2919.927,1079.973,Buzzshare Company,Product 14,Dallas County,TX,Texas,City,32.81402,-96.94889,236607,South,4028698.4090000005
469,SO - 0008105,2017-01-12,Export,9,1802.3,16220.699999999999,1153.472,648.828,Sanum-Kehl Group,Product 26,Jefferson County,CO,Colorado,City,39.70471,-105.08137,152597,West,5685138.2700000005
470,SO - 0005235,2017-01-12,Wholesale,7,2412.0,16884.0,1712.52,699.48,Feednation Corp,Product 13,Suffolk County,NY,New York,Town,40.85745,-72.95984,489278,Northeast,3720639.645
471,SO - 0006693,2017-01-12,Wholesale,12,3986.5,47838.0,3229.065,757.435,Rhynoodle Ltd,Product 20,Jackson County,OR,Oregon,City,42.32652,-122.87559,79805,West,2067108.1199999999
472,SO - 0007880,2017-01-12,Wholesale,12,3999.9,47998.8,1839.9540000000002,2159.946,Devpoint Group,Product 20,Broward County,FL,Florida,City,26.25175,-80.17894,59302,South,2067108.1199999999
473,SO - 0010373,2017-01-12,Wholesale,10,3906.1,39061.0,2695.209,1210.891,Dynazzy Company,Product 25,Cook County,IL,Illinois,Township,41.77475,-87.8596,112890,Midwest,5342315.484
474,SO - 0008374,2017-01-12,Wholesale,7,2546.0,17822.0,1476.6799999999998,1069.3200000000002,Voonyx Group,Product 5,New Haven County,CT,Connecticut,Town,41.27212,-72.9675,54927,Northeast,3925424.5420000004
475,SO - 0010019,2017-01-12,Wholesale,7,3155.7000000000003,22089.9,1988.0910000000001,1167.6090000000002,Zoomzone Corp,Product 29,Riverside County,CA,California,City,33.72058,-116.21556,87533,West,594471.5700000001
476,SO - 000925,2017-01-12,Wholesale,6,2579.5,15477.0,1134.98,1444.52,Natures Group,Product 25,Davis County,UT,Utah,City,41.06022,-111.97105,74143,West,5342315.484
477,SO - 0003049,2017-01-12,Wholesale,6,737.0,4422.0,501.16,235.83999999999997,Bath Group,Product 20,Los Angeles County,CA,California,City,34.06862,-117.93895,108484,West,2067108.1199999999
478,SO - 0005370,2017-01-12,Distributor,7,1085.4,7597.800000000001,629.532,455.86800000000005,Centizu Company,Product 17,Maricopa County/Yavapai County,AZ,Arizona,City,33.7862,-112.30801,171237,West,2119616.824
479,SO - 000299,2017-01-12,Wholesale,7,5045.1,35315.700000000004,3380.2170000000006,1664.8829999999998,Linkbuzz Ltd,Product 1,Suffolk County,NY,New York,Town,40.88409,-73.37676,204398,Northeast,3016489.209
480,SO - 0001260,2017-01-12,Wholesale,12,2814.0,33768.0,2166.78,647.2199999999998,Liberty Group,Product 2,Middlesex County,MA,Massachusetts,Town,42.30791,-71.4362,71209,Northeast,3050087.565
481,SO - 0003007,2017-01-12,Distributor,9,2673.3,24059.7,1096.053,1577.247,Blogspan Ltd,Product 5,King County,WA,Washington,City,47.68149,-122.20874,87281,West,3925424.5420000004
482,SO - 0003086,2017-01-12,Distributor,6,201.0,1206.0,136.68,64.32,Mycone Ltd,Product 4,Orange County,CA,California,City,33.74585,-117.82617,80583,West,2885560.824
483,SO - 0004251,2017-01-12,Distributor,7,1145.7,8019.900000000001,744.705,400.995,NCS Group,Product 23,Placer County,CA,California,City,38.75212,-121.28801,130269,West,1135815.7580000001
484,SO - 0006707,2017-01-12,Wholesale,7,1005.0,7035.0,432.15,572.85,Zooveo Company,Product 26,Camden County,NJ,New Jersey,Township,39.90461,-74.997,71340,Northeast,5685138.2700000005
485,SO - 0006712,2017-01-12,Distributor,11,864.3000000000001,9507.300000000001,388.93500000000006,475.365,Twinte Group,Product 1,Dakota County,MN,Minnesota,City,44.80413,-93.16689,66286,Midwest,3016489.209
486,SO - 0006838,2017-01-12,Wholesale,8,2525.9,20207.2,2020.7200000000003,505.17999999999984,Accord Group,Product 28,Osceola County,FL,Florida,City,28.29196,-81.40757,69152,South,1003867.767
487,SO - 0009698,2017-01-12,Wholesale,7,2626.4,18384.8,1339.4640000000002,1286.936,Snaptags Ltd,Product 20,Salt Lake County,UT,Utah,CDP,40.68689,-111.87549,63311,West,2067108.1199999999
488,SO - 0009233,2017-01-12,Distributor,5,1152.4,5762.0,691.44,460.96000000000004,Omba Group,Product 11,Winnebago County,IL,Illinois,Township,42.24868,-89.07452,173110,Midwest,1230458.484
489,SO - 000528,2017-01-13,Wholesale,7,1031.8,7222.599999999999,464.31,567.49,Bath Group,Product 18,Cook County,IL,Illinois,Village,42.08836,-87.98063,75926,Midwest,2309499.045
490,SO - 000989,2017-01-13,Distributor,6,1125.6000000000001,6753.6,754.1520000000002,371.448,EMD Group,Product 1,Tuscaloosa County,AL,Alabama,City,33.20984,-87.56917,98332,South,3016489.209
491,SO - 0002201,2017-01-13,Export,8,2385.2000000000003,19081.600000000002,1955.864,429.33600000000024,WOONSOCKET Corp,Product 26,Santa Clara County,CA,California,City,37.323,-122.03218,60572,West,5685138.2700000005
492,SO - 0009381,2017-01-13,Distributor,7,1675.0,11725.0,1323.25,351.75,Feednation Corp,Product 3,Montgomery County,MD,Maryland,CDP,38.98067,-77.10026,62024,South,2642352.432
493,SO - 0009396,2017-01-13,Distributor,10,850.9,8509.0,340.36,510.53999999999996,Pfizer Corp,Product 12,Ocean County,NJ,New Jersey,Township,39.99426,-74.16615,90817,Northeast,1356976.996
494,SO - 0001101,2017-01-13,Wholesale,6,3758.7000000000003,22552.2,3082.134,676.5660000000003,Centizu Company,Product 14,Miami-Dade County,FL,Florida,City,25.46872,-80.47756,66498,South,4028698.4090000005
495,SO - 0002492,2017-01-13,Export,5,2224.4,11122.0,1201.1760000000002,1023.2239999999999,Snaptags Ltd,Product 26,Onslow County,NC,North Carolina,City,34.75405,-77.43024,67357,South,5685138.2700000005
496,SO - 0004851,2017-01-13,Wholesale,6,1179.2,7075.200000000001,978.736,200.46400000000006,Yombu Corp,Product 3,Oakland County,MI,Michigan,City,42.48531,-83.37716,81330,Midwest,2642352.432
497,SO - 0005949,2017-01-13,Wholesale,11,2211.0,24321.0,950.73,1260.27,Zoonoodle Ltd,Product 13,Cook County/DuPage County,IL,Illinois,Village,42.02901,-88.08366,74693,Midwest,3720639.645
498,SO - 0006782,2017-01-13,Export,7,5815.6,40709.200000000004,4826.948,988.652,Wordpedia Ltd,Product 3,Fort Bend County/Harris County/Montgomery County,TX,Texas,City,29.78664,-95.3909,2296224,South,2642352.432
499,SO - 0007861,2017-01-13,Export,7,2532.6,17728.2,1747.494,785.106,Actavis Company,Product 18,Camden County,NJ,New Jersey,City,39.92595,-75.11962,76119,Northeast,2309499.045
500,SO - 0008095,2017-01-13,Distributor,10,6070.2,60702.0,4127.736,1942.464,Topiczoom Corp,Product 18,Winnebago County,IL,Illinois,Township,42.24868,-89.07452,173110,Midwest,2309499.045
501,SO - 0010768,2017-01-13,Wholesale,9,1085.4,9768.6,835.758,249.64200000000005,Vitz Company,Product 14,Black Hawk County,IA,Iowa,City,42.49276,-92.34296,68460,Midwest,4028698.4090000005
502,SO - 0002189,2017-01-13,Distributor,11,3852.5,42377.5,2812.325,1040.1750000000002,Jayo Company,Product 22,Lehigh County,PA,Pennsylvania,City,40.60843,-75.49018,120207,Northeast,663601.902
503,SO - 0002608,2017-01-13,Export,11,1333.3,14666.3,706.649,626.651,Voolith Ltd,Product 13,Maricopa County/Yavapai County,AZ,Arizona,City,33.7862,-112.30801,171237,West,3720639.645
504,SO - 0006654,2017-01-13,Distributor,10,2827.4,28274.0,2261.92,565.48,Rooxo Company,Product 13,Weld County,CO,Colorado,City,40.42331,-104.70913,100883,West,3720639.645
505,SO - 0008208,2017-01-13,Export,10,214.4,2144.0,109.34400000000001,105.056,Trunyx Ltd,Product 16,Lehigh County,PA,Pennsylvania,City,40.60843,-75.49018,120207,Northeast,2062061.144
506,SO - 000643,2017-01-13,Distributor,7,1005.0,7035.0,462.3,542.7,Flipbug Ltd,Product 5,DuPage County,IL,Illinois,Township,41.948,-87.98061,89715,Midwest,3925424.5420000004
507,SO - 0003578,2017-01-13,Distributor,5,1038.5,5192.5,675.025,363.475,Flipbug Ltd,Product 25,Martin County/Midland County,TX,Texas,City,32.02464,-102.11347,132950,South,5342315.484
508,SO - 0004175,2017-01-13,Distributor,12,254.6,3055.2,137.484,117.11599999999999,Topiczoom Corp,Product 4,San Bernardino County,CA,California,City,34.1064,-117.59311,175236,West,2885560.824
509,SO - 0008941,2017-01-13,Wholesale,11,1708.5,18793.5,1178.865,529.635,Rhynoodle Ltd,Product 25,Mecklenburg County,NC,North Carolina,Town,35.41069,-80.84285,52704,South,5342315.484
510,SO - 0003213,2017-01-13,Wholesale,10,690.1,6901.0,324.347,365.75300000000004,Gigabox Group,Product 6,Hartford County,CT,Connecticut,City,41.76371,-72.68509,124006,Northeast,1672229.416
511,SO - 0003758,2017-01-13,Distributor,6,1118.9,6713.400000000001,626.5840000000001,492.31600000000003,Mylan Corp,Product 25,DeKalb County,GA,Georgia,City,33.85844,-84.3402,51910,South,5342315.484
512,SO - 0005090,2017-01-13,Distributor,12,227.8,2733.6000000000004,159.46,68.34,Voolia Ltd,Product 9,Aransas County/Kleberg County/Nueces County/San Patricio County,TX,Texas,City,27.75425,-97.17339,324074,South,710415.405
513,SO - 0006160,2017-01-13,Export,9,1092.1000000000001,9828.900000000001,688.0230000000001,404.077,Neutrogena Ltd,Product 13,Jefferson Parish,LA,Louisiana,City,29.99409,-90.24174,67091,South,3720639.645
514,SO - 0006282,2017-01-13,Wholesale,9,3959.7000000000003,35637.3,2336.223,1623.4770000000003,Pixoboo Corp,Product 5,Tarrant County,TX,Texas,City,32.73569,-97.10807,388125,South,3925424.5420000004
515,SO - 0007181,2017-01-13,Wholesale,12,897.8000000000001,10773.6,673.35,224.45000000000005,Zoovu Corp,Product 5,Los Angeles County,CA,California,City,33.90224,-118.08173,107140,West,3925424.5420000004
516,SO - 0010322,2017-01-13,Wholesale,6,241.20000000000002,1447.2,205.02,36.18000000000001,Eayo Company,Product 6,King County/Pierce County,WA,Washington,City,47.30377,-122.21,77006,West,1672229.416
517,SO - 0009614,2017-01-13,Wholesale,8,2278.0,18224.0,1571.82,706.1800000000001,Accudial Company,Product 3,Fairfield County,CT,Connecticut,City,41.39482,-73.45401,84657,Northeast,2642352.432
518,SO - 0010354,2017-01-13,Distributor,6,2639.8,15838.800000000001,1768.6660000000002,871.134,BTA Corp,Product 15,San Bernardino County,CA,California,City,34.0739,-117.31365,54621,West,3299478.315
519,SO - 000397,2017-01-13,Distributor,5,1112.2,5561.0,500.49,611.71,US Ltd,Product 14,New York County,NY,New York,Borough,40.72833,-73.99417,1644518,Northeast,4028698.4090000005
520,SO - 000886,2017-01-13,Distributor,10,1219.4,12194.0,951.1320000000001,268.26800000000003,Vimbo Company,Product 21,Hudson County,NJ,New Jersey,City,40.72816,-74.07764,264290,Northeast,959899.2180000001
521,SO - 0001414,2017-01-13,Wholesale,11,1092.1000000000001,12013.100000000002,797.2330000000001,294.8670000000001,Oba Company,Product 25,Sedgwick County,KS,Kansas,City,37.69224,-97.33754,389965,Midwest,5342315.484
522,SO - 0002056,2017-01-13,Distributor,9,5701.7,51315.299999999996,4789.428,912.2719999999999,Wordtune Company,Product 5,Sebastian County,AR,Arkansas,City,35.38592,-94.39855,88194,South,3925424.5420000004
523,SO - 0003963,2017-01-13,Distributor,11,1145.7,12602.7,893.6460000000001,252.05399999999997,SAFEWAY Ltd,Product 30,Lane County,OR,Oregon,City,44.05207,-123.08675,163460,West,1011609.684
